Terminal ready
~J‰‰‰‰‰‰‰‰‰)ë“éÂbŠºrºªbŠr‚‚RŠŠjRD:AMY±ÒbŠb‚ªb‚²bºªb‚šŠb’ÂbŠ’b¢²bšŠ’bš¢bŠºbš²b‚ÂŠbš²b¢²b¢ªbŠÂªbš‚Rº²jPD:…u5eÅ)b’b‚ªbªŠb¢šb’‚‚bšŠR¢2m¤DéŠêj•)bŠb‚ŠbÂ²bbb’ÂR²‚jRD:suÅŠŠi+‚’r‚šÊš’br±‚Ê¢š¢rªÊÊššbº±Åª‚ŠªŠr’‚b
±©Ù
5)þ$GNRMC,150151.40,A,3902.03909,N,09434.59940,W,0.291,,281015,,,A*7C
$GNVTG,,T,,M,0.291,N,0.539,K,A*38
$GNGGA,150151.40,3902.03909,N,09434.59940,W,1,03,17.76,257.6,M,-28.9,M,,*49
$GNGSA,A,2,06,17,12,,,,,,,,,,17.79,17.76,1.00*10
$GNGSA,A,2,,,,,,,,,,,,,17.79,17.76,1.00*13
$GPGSV,2,1,05,06,75,031,28,12,46,312,34,17,36,081,36,46,45,185,30*76
$GPGSV,2,2,05,51,43,200,31*4F
$GLGSV,1,1,01,86,,,28*60
$GNGLL,3902.03909,N,09434.59940,W,150151.40,A,A*60
$GNRMC,150151.60,A,3902.03889,N,09434.59947,W,0.320,,281015,,,A*7B
$GNVTG,,T,,M,0.320,N,0.593,K,A*33
$GNGGA,150151.60,3902.03889,N,09434.59947,W,1,03,17.77,257.3,M,-28.9,M,,*41
$GNGSA,A,2,06,17,12,,,,,,,,,,17.80,17.77,1.00*17
$GNGSA,A,2,,,,,,,,,,,,,17.80,17.77,1.00*14
$GPGSV,2,1,05,06,75,031,28,12,46,312,34,17,36,081,36,46,45,185,30*76
$GPGSV,2,2,05,51,43,200,31*4F
$GLGSV,1,1,01,86,,,28*60
$GNGLL,3902.03889,N,09434.59947,W,150151.60,A,A*6C
$GNRMC,150151.80,A,3902.03864,N,09434.59955,W,0.382,,281015,,,A*7D
$GNVTG,,T,,M,0.382,N,0.708,K,A*3B
$GNGGA,150151.80,3902.03864,N,09434.59955,W,1,03,17.78,257.3,M,-28.9,M,,*40
$GNGSA,A,2,06,17,12,,,,,,,,,,17.81,17.78,1.00*19
$GNGSA,A,2,,,,,,,,,,,,,17.81,17.78,1.00*1A
$GPGSV,2,1,05,06,75,031,28,12,46,312,34,17,36,081,36,46,45,185,30*76
$GPGSV,2,2,05,51,43,200,31*4F
$GLGSV,1,1,01,86,,,28*60
$GNGLL,3902.03864,N,09434.59955,W,150151.80,A,A*62
$GNRMC,150152.00,A,3902.03851,N,09434.59959,W,0.266,,281015,,,A*77
$GNVTG,,T,,M,0.266,N,0.493,K,A*31
$GNGGA,150152.00,3902.03851,N,09434.59959,W,1,03,17.79,257.4,M,-28.9,M,,*47
$GNGSA,A,2,06,17,12,,,,,,,,,,17.82,17.79,1.00*1B
$GNGSA,A,2,,,,,,,,,,,,,17.82,17.79,1.00*18
$GPGSV,2,1,05,06,75,031,28,12,46,312,34,17,36,081,36,46,45,185,29*7E
$GPGSV,2,2,05,51,43,200,31*4F
$GLGSV,1,1,01,86,,,28*60
$GNGLL,3902.03851,N,09434.59959,W,150152.00,A,A*63
$GNRMC,150152.20,A,3902.03825,N,09434.59967,W,0.304,,281015,,,A*7E
$GNVTG,,T,,M,0.304,N,0.563,K,A*3A
$GNGGA,150152.20,3902.03825,N,09434.59967,W,1,03,17.80,257.4,M,-28.9,M,,*4D
$GNGSA,A,2,06,17,12,,,,,,,,,,17.83,17.80,1.00*1C
$GNGSA,A,2,,,,,,,,,,,,,17.83,17.80,1.00*1F
$GPGSV,2,1,05,06,75,031,28,12,46,312,34,17,36,081,36,46,45,185,29*7E
$GPGSV,2,2,05,51,43,200,31*4F
$GLGSV,1,1,01,86,,,28*60
$GNGLL,3902.03825,N,09434.59967,W,150152.20,A,A*6F
$GNRMC,150152.40,A,3902.03799,N,09434.59976,W,0.324,,281015,,,A*72
$GNVTG,,T,,M,0.324,N,0.600,K,A*3E
$GNGGA,150152.40,3902.03799,N,09434.59976,W,1,03,17.81,257.4,M,-28.9,M,,*42
$GNGSA,A,2,06,17,12,,,,,,,,,,17.84,17.81,1.00*1A
$GNGSA,A,2,,,,,,,,,,,,,17.84,17.81,1.00*19
$GPGSV,2,1,05,06,75,031,28,12,46,312,34,17,36,081,36,46,45,185,30*76
$GPGSV,2,2,05,51,43,200,31*4F
$GLGSV,1,1,01,86,,,28*60
$GNGLL,3902.03799,N,09434.59976,W,150152.40,A,A*61
$GNRMC,150152.60,A,3902.03783,N,09434.59981,W,0.260,,281015,,,A*72
$GNVTG,,T,,M,0.260,N,0.481,K,A*34
$GNGGA,150152.60,3902.03783,N,09434.59981,W,1,03,17.82,257.3,M,-28.9,M,,*47
$GNGSA,A,2,06,17,12,,,,,,,,,,17.85,17.82,1.00*18
$GNGSA,A,2,,,,,,,,,,,,,17.85,17.82,1.00*1B
$GPGSV,2,1,05,06,75,031,28,12,46,312,34,17,36,081,36,46,45,185,30*76
$GPGSV,2,2,05,51,43,200,31*4F
$GLGSV,1,1,01,86,,,28*60
$GNGLL,3902.03783,N,09434.59981,W,150152.60,A,A*60
$GNRMC,150152.80,A,3902.03769,N,09434.59985,W,0.180,,281015,,,A*71
$GNVTG,,T,,M,0.180,N,0.332,K,A*36
$GNGGA,150152.80,3902.03769,N,09434.59985,W,1,03,17.83,257.5,M,-28.9,M,,*4E
$GNGSA,A,2,06,17,12,,,,,,,,,,17.86,17.83,1.00*1A
$GNGSA,A,2,,,,,,,,,,,,,17.86,17.83,1.00*19
$GPGSV,2,1,05,06,75,031,28,12,46,312,34,17,36,081,36,46,45,185,30*76
$GPGSV,2,2,05,51,43,200,31*4F
$GLGSV,1,1,01,86,,,28*60
$GNGLL,3902.03769,N,09434.59985,W,150152.80,A,A*6E
$GNRMC,150153.00,A,3902.03737,N,09434.59995,W,0.304,,281015,,,A*7C
$GNVTG,,T,,M,0.304,N,0.562,K,A*3B
$GNGGA,150153.00,3902.03737,N,09434.59995,W,1,03,17.84,257.6,M,-28.9,M,,*49
$GNGSA,A,2,06,17,12,,,,,,,,,,17.87,17.84,1.00*1C
$GNGSA,A,2,,,,,,,,,,,,,17.87,17.84,1.00*1F
$GPGSV,2,1,05,06,75,031,28,12,46,312,34,17,36,081,36,46,45,185,30*76
$GPGSV,2,2,05,51,43,200,31*4F
$GLGSV,1,1,01,86,,,28*60
$GNGLL,3902.03737,N,09434.59995,W,150153.00,A,A*6D
$GNRMC,150153.20,A,3902.03714,N,09434.60003,W,0.277,,281015,,,A*76
$GNVTG,,T,,M,0.277,N,0.514,K,A*3F
$GNGGA,150153.20,3902.03714,N,09434.60003,W,1,03,17.85,257.6,M,-28.9,M,,*47
$GNGSA,A,2,06,17,12,,,,,,,,,,17.88,17.85,1.00*12
$GNGSA,A,2,,,,,,,,,,,,,17.88,17.85,1.00*11
$GPGSV,2,1,05,06,75,031,28,12,46,312,34,17,36,081,36,46,45,185,30*76
$GPGSV,2,2,05,51,43,200,31*4F
$GLGSV,1,1,01,86,,,28*60
$GNGLL,3902.03714,N,09434.60003,W,150153.20,A,A*62
$GNRMC,150153.40,A,3902.03686,N,09434.60012,W,0.312,,281015,,,A*78
$GNVTG,,T,,M,0.312,N,0.578,K,A*37
$GNGGA,150153.40,3902.03686,N,09434.60012,W,1,03,17.86,257.6,M,-28.9,M,,*48
$GNGSA,A,2,06,17,12,,,,,,,,,,17.89,17.86,1.00*10
$GNGSA,A,2,,,,,,,,,,,,,17.89,17.86,1.00*13
$GPGSV,2,1,06,06,75,031,28,12,46,312,34,14,,,25,17,36,081,36*4B
$GPGSV,2,2,06,46,45,185,30,51,43,200,31*70
$GLGSV,1,1,01,86,,,28*60
$GNGLL,3902.03686,N,09434.60012,W,150153.40,A,A*6E
$GNRMC,150153.60,A,3902.03673,N,09434.60015,W,0.179,,281015,,,A*78
$GNVTG,,T,,M,0.179,N,0.332,K,A*30
$GNGGA,150153.60,3902.03673,N,09434.60015,W,1,03,17.87,257.6,M,-28.9,M,,*46
$GNGSA,A,2,06,17,12,,,,,,,,,,17.90,17.87,1.00*19
$GNGSA,A,2,,,,,,,,,,,,,17.90,17.87,1.00*1A
$GPGSV,2,1,06,06,75,031,28,12,46,312,34,14,,,24,17,36,081,36*4A
$GPGSV,2,2,06,46,45,185,30,51,43,200,31*70
$GLGSV,1,1,01,86,,,28*60
$GNGLL,3902.03673,N,09434.60015,W,150153.60,A,A*61
$GNRMC,150153.80,A,3902.03624,N,09434.60031,W,0.434,,281015,,,A*7E
$GNVTG,,T,,M,0.434,N,0.804,K,A*32
$GNGGA,150153.80,3902.03624,N,09434.60031,W,1,03,17.88,257.8,M,-28.9,M,,*4D
$GNGSA,A,2,06,17,12,,,,,,,,,,17.91,17.88,1.00*17
$GNGSA,A,2,,,,,,,,,,,,,17.91,17.88,1.00*14
$GPGSV,2,1,06,06,75,031,28,12,46,312,34,14,,,23,17,36,081,36*4D
$GPGSV,2,2,06,46,45,185,30,51,43,200,31*70
$GLGSV,1,1,01,86,,,28*60
$GNGLL,3902.03624,N,09434.60031,W,150153.80,A,A*6B
$GNRMC,150154.00,A,3902.03609,N,09434.60035,W,0.310,,281015,,,A*7B
$GNVTG,,T,,M,0.310,N,0.574,K,A*39
$GNGGA,150154.00,3902.03609,N,09434.60035,W,1,03,17.89,258.4,M,-28.9,M,,*4B
$GNGSA,A,2,06,17,12,,,,,,,,,,17.91,17.89,1.00*16
$GNGSA,A,2,,,,,,,,,,,,,17.91,17.89,1.00*15
$GPGSV,2,1,06,06,75,031,28,12,46,312,34,14,,,22,17,36,081,33*49
$GPGSV,2,2,06,46,45,185,30,51,43,200,31*70
$GLGSV,1,1,01,86,,,28*60
$GNGLL,3902.03609,N,09434.60035,W,150154.00,A,A*6F
$GNRMC,150154.20,A,3902.03584,N,09434.60044,W,0.357,,281015,,,A*7A
$GNVTG,,T,,M,0.357,N,0.662,K,A*3E
$GNGGA,150154.20,3902.03584,N,09434.60044,W,1,03,17.90,258.0,M,-28.9,M,,*45
$GNGSA,A,2,06,17,12,,,,,,,,,,17.92,17.90,1.00*1D
$GNGSA,A,2,,,,,,,,,,,,,17.92,17.90,1.00*1E
$GPGSV,2,1,06,06,75,031,28,12,46,312,34,14,,,21,17,36,081,33*4A
$GPGSV,2,2,06,46,45,185,30,51,43,200,31*70
$GLGSV,1,1,01,86,,,28*60
$GNGLL,3902.03584,N,09434.60044,W,150154.20,A,A*6D
$GNRMC,150154.40,A,3902.03564,N,09434.60050,W,0.293,,281015,,,A*7E
$GNVTG,,T,,M,0.293,N,0.542,K,A*36
$GNGGA,150154.40,3902.03564,N,09434.60050,W,1,03,17.91,257.6,M,-28.9,M,,*40
$GNGSA,A,2,06,17,12,,,,,,,,,,17.93,17.91,1.00*1D
$GNGSA,A,2,,,,,,,,,,,,,17.93,17.91,1.00*1E
$GPGSV,2,1,06,06,75,031,28,12,46,312,34,14,,,20,17,36,081,36*4E
$GPGSV,2,2,06,46,45,185,30,51,43,200,32*73
$GLGSV,1,1,01,86,,,28*60
$GNGLL,3902.03564,N,09434.60050,W,150154.40,A,A*60
$GNRMC,150154.60,A,3902.03536,N,09434.60059,W,0.367,,281015,,,A*78
$GNVTG,,T,,M,0.367,N,0.680,K,A*31
$GNGGA,150154.60,3902.03536,N,09434.60059,W,1,03,17.92,257.4,M,-28.9,M,,*4D
$GNGSA,A,2,06,17,12,,,,,,,,,,17.94,17.92,1.00*19
$GNGSA,A,2,,,,,,,,,,,,,17.94,17.92,1.00*1A
$GPGSV,2,1,06,06,75,031,28,12,46,312,34,14,,,20,17,36,081,36*4E
$GPGSV,2,2,06,46,45,185,31,51,43,200,32*72
$GLGSV,1,1,01,86,,,28*60
$GNGLL,3902.03536,N,09434.60059,W,150154.60,A,A*6C
$GNRMC,150154.80,A,3902.03509,N,09434.60067,W,0.438,,281015,,,A*7A
$GNVTG,,T,,M,0.438,N,0.811,K,A*3A
$GNGGA,150154.80,3902.03509,N,09434.60067,W,1,03,17.93,257.3,M,-28.9,M,,*44
$GNGSA,A,2,06,17,12,,,,,,,,,,17.95,17.93,1.00*19
$GNGSA,A,2,,,,,,,,,,,,,17.95,17.93,1.00*1A
$GPGSV,2,1,06,06,75,031,28,12,46,312,34,14,,,19,17,36,081,36*44
$GPGSV,2,2,06,46,45,185,31,51,43,200,33*73
$GLGSV,1,1,01,86,,,28*60
$GNGLL,3902.03509,N,09434.60067,W,150154.80,A,A*63
$GNRMC,150155.00,A,3902.03491,N,09434.60073,W,0.390,,281015,,,A*73
$GNVTG,,T,,M,0.390,N,0.723,K,A*31
$GNGGA,150155.00,3902.03491,N,09434.60073,W,1,03,17.94,257.4,M,-28.9,M,,*48
$GNGSA,A,2,06,17,12,,,,,,,,,,17.96,17.94,1.00*1D
$GNGSA,A,2,,,,,,,,,,,,,17.96,17.94,1.00*1E
$GPGSV,2,1,06,06,75,031,28,12,46,312,34,14,,,19,17,36,081,36*44
$GPGSV,2,2,06,46,45,185,31,51,43,200,33*73
$GLGSV,1,1,01,86,,,28*60
$GNGLL,3902.03491,N,09434.60073,W,150155.00,A,A*6F
$GNRMC,150155.20,A,3902.03462,N,09434.60082,W,0.450,,281015,,,A*78
$GNVTG,,T,,M,0.450,N,0.834,K,A*33
$GNGGA,150155.20,3902.03462,N,09434.60082,W,1,03,17.95,257.4,M,-28.9,M,,*49
$GNGSA,A,2,06,17,12,,,,,,,,,,17.97,17.95,1.00*1D
$GNGSA,A,2,,,,,,,,,,,,,17.97,17.95,1.00*1E
$GPGSV,2,1,06,06,75,031,28,12,46,312,34,14,,,18,17,36,081,36*45
$GPGSV,2,2,06,46,45,185,31,51,43,200,33*73
$GLGSV,1,1,01,86,,,28*60
$GNGLL,3902.03462,N,09434.60082,W,150155.20,A,A*6F
$GNRMC,150155.40,A,3902.03435,N,09434.60091,W,0.486,,281015,,,A*75
$GNVTG,,T,,M,0.486,N,0.900,K,A*3E
$GNGGA,150155.40,3902.03435,N,09434.60091,W,1,03,17.96,257.1,M,-28.9,M,,*49
$GNGSA,A,2,06,17,12,,,,,,,,,,17.98,17.96,1.00*11
$GNGSA,A,2,,,,,,,,,,,,,17.98,17.96,1.00*12
$GPGSV,2,1,06,06,75,031,28,12,46,312,35,14,,,18,17,36,081,36*44
$GPGSV,2,2,06,46,45,185,31,51,43,200,33*73
$GLGSV,1,1,01,86,,,28*60
$GNGLL,3902.03435,N,09434.60091,W,150155.40,A,A*69
$GNRMC,150155.60,A,3902.03420,N,09434.60096,W,0.409,,281015,,,A*73
$GNVTG,,T,,M,0.409,N,0.757,K,A*35
$GNGGA,150155.60,3902.03420,N,09434.60096,W,1,03,17.97,257.1,M,-28.9,M,,*49
$GNGSA,A,2,06,17,12,,,,,,,,,,17.99,17.97,1.00*11
$GNGSA,A,2,,,,,,,,,,,,,17.99,17.97,1.00*12
$GPGSV,2,1,06,06,75,031,29,12,46,312,35,14,,,18,17,36,081,36*45
$GPGSV,2,2,06,46,45,185,31,51,43,200,33*73
$GLGSV,1,1,01,86,,,28*60
$GNGLL,3902.03420,N,09434.60096,W,150155.60,A,A*68
$GNRMC,150155.80,A,3902.03399,N,09434.60102,W,0.532,,281015,,,A*7D
$GNVTG,,T,,M,0.532,N,0.985,K,A*3D
$GNGGA,150155.80,3902.03399,N,09434.60102,W,1,03,17.98,256.2,M,-28.9,M,,*43
$GNGSA,A,2,06,17,12,,,,,,,,,,18.00,17.98,1.00*11
$GNGSA,A,2,,,,,,,,,,,,,18.00,17.98,1.00*12
$GPGSV,2,1,06,06,75,031,29,12,46,312,34,14,,,17,17,36,081,36*4B
$GPGSV,2,2,06,46,45,185,31,51,43,200,33*73
$GLGSV,1,1,01,86,,,28*60
$GNGLL,3902.03399,N,09434.60102,W,150155.80,A,A*6F
$GNRMC,150156.00,A,3902.03378,N,09434.60109,W,0.563,,281015,,,A*76
$GNVTG,,T,,M,0.563,N,1.042,K,A*3A
$GNGGA,150156.00,3902.03378,N,09434.60109,W,1,03,17.99,256.5,M,-28.9,M,,*4A
$GNGSA,A,2,06,17,12,,,,,,,,,,18.01,17.99,1.00*11
$GNGSA,A,2,,,,,,,,,,,,,18.01,17.99,1.00*12
$GPGSV,2,1,06,06,75,031,29,12,46,312,35,14,,,17,17,36,081,36*4A
$GPGSV,2,2,06,46,45,185,31,51,43,200,33*73
$GLGSV,1,1,01,86,,,28*60
$GNGLL,3902.03378,N,09434.60109,W,150156.00,A,A*60
$GNRMC,150156.20,A,3902.03368,N,09434.60112,W,0.560,,281015,,,A*7C
$GNVTG,,T,,M,0.560,N,1.036,K,A*3A
$GNGGA,150156.20,3902.03368,N,09434.60112,W,1,03,18.00,256.2,M,-28.9,M,,*4B
$GNGSA,A,2,06,17,12,,,,,,,,,,18.02,18.00,1.00*1D
$GNGSA,A,2,,,,,,,,,,,,,18.02,18.00,1.00*1E
$GPGSV,2,1,06,06,75,031,29,12,46,312,35,14,,,16,17,36,081,36*4B
$GPGSV,2,2,06,46,45,185,31,51,43,200,33*73
$GLGSV,1,1,01,86,,,28*60
$GNGLL,3902.03368,N,09434.60112,W,150156.20,A,A*69
$GNRMC,150156.40,A,3902.03360,N,09434.60114,W,0.420,,281015,,,A*71
$GNVTG,,T,,M,0.420,N,0.778,K,A*33
$GNGGA,150156.40,3902.03360,N,09434.60114,W,1,03,18.01,256.7,M,-28.9,M,,*47
$GNGSA,A,2,06,17,12,,,,,,,,,,18.03,18.01,1.00*1D
$GNGSA,A,2,,,,,,,,,,,,,18.03,18.01,1.00*1E
$GPGSV,2,1,06,06,75,031,29,12,46,312,35,14,,,16,17,36,081,36*4B
$GPGSV,2,2,06,46,45,185,31,51,43,200,33*73
$GLGSV,1,1,01,86,,,28*60
$GNGLL,3902.03360,N,09434.60114,W,150156.40,A,A*61
$GNRMC,150156.60,A,3902.03332,N,09434.60123,W,0.509,,281015,,,A*7A
$GNVTG,,T,,M,0.509,N,0.943,K,A*3F
$GNGGA,150156.60,3902.03332,N,09434.60123,W,1,03,18.02,256.8,M,-28.9,M,,*4A
$GNGSA,A,2,06,17,12,,,,,,,,,,18.04,18.02,1.00*19
$GNGSA,A,2,,,,,,,,,,,,,18.04,18.02,1.00*1A
$GPGSV,2,1,06,06,75,031,28,12,46,312,34,14,,,16,17,36,081,36*4B
$GPGSV,2,2,06,46,45,185,31,51,43,200,33*73
$GLGSV,1,1,01,86,,,28*60
$GNGLL,3902.03332,N,09434.60123,W,150156.60,A,A*60
$GNRMC,150156.80,A,3902.03326,N,09434.60125,W,0.440,,281015,,,A*7B
$GNVTG,,T,,M,0.440,N,0.814,K,A*30
$GNGGA,150156.80,3902.03326,N,09434.60125,W,1,03,18.03,256.5,M,-28.9,M,,*4B
$GNGSA,A,2,06,17,12,,,,,,,,,,18.05,18.03,1.00*19
$GNGSA,A,2,,,,,,,,,,,,,18.05,18.03,1.00*1A
$GPGSV,2,1,06,06,75,031,28,12,46,312,34,14,,,15,17,36,081,36*48
$GPGSV,2,2,06,46,45,185,31,51,43,200,33*73
$GLGSV,1,1,01,86,,,28*60
$GNGLL,3902.03326,N,09434.60125,W,150156.80,A,A*6D
$GNRMC,150157.00,A,3902.03307,N,09434.60132,W,0.516,,281015,,,A*75
$GNVTG,,T,,M,0.516,N,0.956,K,A*35
$GNGGA,150157.00,3902.03307,N,09434.60132,W,1,03,18.04,256.3,M,-28.9,M,,*46
$GNGSA,A,2,06,17,12,,,,,,,,,,18.06,18.04,1.00*1D
$GNGSA,A,2,,,,,,,,,,,,,18.06,18.04,1.00*1E
$GPGSV,2,1,06,06,75,031,28,12,46,312,35,14,,,15,17,36,081,36*49
$GPGSV,2,2,06,46,45,185,31,51,43,200,33*73
$GLGSV,1,1,01,86,,,28*60
$GNGLL,3902.03307,N,09434.60132,W,150157.00,A,A*61
$GNRMC,150157.20,A,3902.03291,N,09434.60137,W,0.630,,281015,,,A*7B
$GNVTG,,T,,M,0.630,N,1.166,K,A*38
$GNGGA,150157.20,3902.03291,N,09434.60137,W,1,03,18.05,255.8,M,-28.9,M,,*46
$GNGSA,A,2,06,17,12,,,,,,,,,,18.07,18.05,1.00*1D
$GNGSA,A,2,,,,,,,,,,,,,18.07,18.05,1.00*1E
$GPGSV,2,1,05,06,75,031,28,12,46,312,35,17,36,081,36,46,45,185,31*76
$GPGSV,2,2,05,51,43,200,33*4D
$GLGSV,1,1,01,86,,,28*60
$GNGLL,3902.03291,N,09434.60137,W,150157.20,A,A*68
$GNRMC,150157.40,A,3902.03295,N,09434.60135,W,0.509,,281015,,,A*72
$GNVTG,,T,,M,0.509,N,0.943,K,A*3F
$GNGGA,150157.40,3902.03295,N,09434.60135,W,1,03,18.06,255.8,M,-28.9,M,,*45
$GNGSA,A,2,06,17,12,,,,,,,,,,18.08,18.06,1.00*11
$GNGSA,A,2,,,,,,,,,,,,,18.08,18.06,1.00*12
$GPGSV,2,1,05,06,75,031,28,12,46,312,35,17,36,081,36,46,45,185,31*76
$GPGSV,2,2,05,51,43,200,33*4D
$GLGSV,1,1,01,86,,,28*60
$GNGLL,3902.03295,N,09434.60135,W,150157.40,A,A*68
$GNRMC,150157.60,A,3902.03300,N,09434.60133,W,0.397,,281015,,,A*7A
$GNVTG,,T,,M,0.397,N,0.735,K,A*31
$GNGGA,150157.60,3902.03300,N,09434.60133,W,1,03,18.07,255.7,M,-28.9,M,,*42
$GNGSA,A,2,06,17,12,,,,,,,,,,18.09,18.07,1.00*11
$GNGSA,A,2,,,,,,,,,,,,,18.09,18.07,1.00*12
$GPGSV,2,1,05,06,75,031,28,12,46,312,35,17,36,081,36,46,45,185,31*76
$GPGSV,2,2,05,51,43,200,33*4D
$GLGSV,1,1,01,86,,,28*60
$GNGLL,3902.03300,N,09434.60133,W,150157.60,A,A*61
$GNRMC,150157.80,A,3902.03271,N,09434.60143,W,0.647,,281015,,,A*7C
$GNVTG,,T,,M,0.647,N,1.198,K,A*39
$GNGGA,150157.80,3902.03271,N,09434.60143,W,1,03,18.08,255.5,M,-28.9,M,,*41
$GNGSA,A,2,06,17,12,,,,,,,,,,18.10,18.08,1.00*16
$GNGSA,A,2,,,,,,,,,,,,,18.10,18.08,1.00*15
$GPGSV,2,1,05,06,75,031,27,12,46,312,35,17,36,081,36,46,45,185,31*79
$GPGSV,2,2,05,51,43,200,32*4C
$GLGSV,1,1,01,86,,,28*60
$GNGLL,3902.03271,N,09434.60143,W,150157.80,A,A*6F
$GNRMC,150158.00,A,3902.03293,N,09434.60135,W,0.349,,281015,,,A*7D
$GNVTG,,T,,M,0.349,N,0.646,K,A*37
$GNGGA,150158.00,3902.03293,N,09434.60135,W,1,03,18.09,255.5,M,-28.9,M,,*4A
$GNGSA,A,2,06,17,12,,,,,,,,,,18.11,18.09,1.00*16
$GNGSA,A,2,,,,,,,,,,,,,18.11,18.09,1.00*15
$GPGSV,2,1,05,06,75,031,27,12,46,312,35,17,36,081,36,46,45,185,31*79
$GPGSV,2,2,05,51,43,200,32*4C
$GLGSV,1,1,01,86,,,28*60
$GNGLL,3902.03293,N,09434.60135,W,150158.00,A,A*65
$GNRMC,150158.20,A,3902.03277,N,09434.60140,W,0.463,,281015,,,A*78
$GNVTG,,T,,M,0.463,N,0.857,K,A*36
$GNGGA,150158.20,3902.03277,N,09434.60140,W,1,03,18.10,255.5,M,-28.9,M,,*48
$GNGSA,A,2,06,17,12,,,,,,,,,,18.12,18.10,1.00*1D
$GNGSA,A,2,,,,,,,,,,,,,18.12,18.10,1.00*1E
$GPGSV,2,1,05,06,75,031,27,12,46,312,35,17,36,081,36,46,45,185,32*7A
$GPGSV,2,2,05,51,43,200,32*4C
$GLGSV,1,1,01,86,,,28*60
$GNGLL,3902.03277,N,09434.60140,W,150158.20,A,A*6F
$GNRMC,150158.40,A,3902.03268,N,09434.60143,W,0.506,,281015,,,A*71
$GNVTG,,T,,M,0.506,N,0.937,K,A*33
$GNGGA,150158.40,3902.03268,N,09434.60143,W,1,03,18.11,255.5,M,-28.9,M,,*42
$GNGSA,A,2,06,17,12,,,,,,,,,,18.13,18.11,1.00*1D
$GNGSA,A,2,,,,,,,,,,,,,18.13,18.11,1.00*1E
$GPGSV,2,1,05,06,75,031,27,12,46,312,35,17,36,081,36,46,45,185,32*7A
$GPGSV,2,2,05,51,43,200,32*4C
$GLGSV,1,1,01,86,,,28*60
$GNGLL,3902.03268,N,09434.60143,W,150158.40,A,A*64
$GNRMC,150158.60,A,3902.03284,N,09434.60138,W,0.412,,281015,,,A*79
$GNVTG,,T,,M,0.412,N,0.763,K,A*38
$GNGGA,150158.60,3902.03284,N,09434.60138,W,1,03,18.12,254.9,M,-28.9,M,,*40
$GNGSA,A,2,06,17,12,,,,,,,,,,18.14,18.12,1.00*19
$GNGSA,A,2,,,,,,,,,,,,,18.14,18.12,1.00*1A
$GPGSV,2,1,05,06,75,031,27,12,46,312,35,17,36,081,36,46,45,185,32*7A
$GPGSV,2,2,05,51,43,200,32*4C
$GLGSV,1,1,01,86,,,28*60
$GNGLL,3902.03284,N,09434.60138,W,150158.60,A,A*68
$GNRMC,150158.80,A,3902.03296,N,09434.60134,W,0.369,,281015,,,A*73
$GNVTG,,T,,M,0.369,N,0.684,K,A*3B
$GNGGA,150158.80,3902.03296,N,09434.60134,W,1,03,18.13,254.8,M,-28.9,M,,*41
$GNGSA,A,2,06,17,12,,,,,,,,,,18.15,18.13,1.00*19
$GNGSA,A,2,,,,,,,,,,,,,18.15,18.13,1.00*1A
$GPGSV,2,1,05,06,75,031,27,12,46,312,35,17,36,081,36,46,45,185,32*7A
$GPGSV,2,2,05,51,43,200,32*4C
$GLGSV,1,1,01,86,,,28*60
$GNGLL,3902.03296,N,09434.60134,W,150158.80,A,A*69
$GNRMC,150159.00,A,3902.03310,N,09434.60129,W,0.314,,281015,,,A*73
$GNVTG,,T,,M,0.314,N,0.582,K,A*34
$GNGGA,150159.00,3902.03310,N,09434.60129,W,1,03,18.14,254.7,M,-28.9,M,,*43
$GNGSA,A,2,06,17,12,,,,,,,,,,18.16,18.14,1.00*1D
$GNGSA,A,2,,,,,,,,,,,,,18.16,18.14,1.00*1E
$GPGSV,2,1,05,06,75,031,27,12,46,312,35,17,36,081,36,46,45,185,31*79
$GPGSV,2,2,05,51,43,200,32*4C
$GLGSV,1,1,01,86,,,28*60
$GNGLL,3902.03310,N,09434.60129,W,150159.00,A,A*63
$GNRMC,150159.20,A,3902.03288,N,09434.60137,W,0.532,,281015,,,A*7C
$GNVTG,,T,,M,0.532,N,0.985,K,A*3D
$GNGGA,150159.20,3902.03288,N,09434.60137,W,1,03,18.15,255.4,M,-28.9,M,,*4D
$GNGSA,A,2,06,17,12,,,,,,,,,,18.18,18.15,1.00*12
$GNGSA,A,2,,,,,,,,,,,,,18.18,18.15,1.00*11
$GPGSV,2,1,05,06,75,031,27,12,46,312,35,17,36,081,36,46,45,185,31*79
$GPGSV,2,2,05,51,43,200,32*4C
$GLGSV,1,1,01,86,,,28*60
$GNGLL,3902.03288,N,09434.60137,W,150159.20,A,A*6E
$GNRMC,150159.40,A,3902.03301,N,09434.60132,W,0.356,,281015,,,A*7B
$GNVTG,,T,,M,0.356,N,0.659,K,A*37
$GNGGA,150159.40,3902.03301,N,09434.60132,W,1,03,18.16,255.4,M,-28.9,M,,*4D
$GNGSA,A,2,06,17,12,,,,,,,,,,18.19,18.16,1.00*10
$GNGSA,A,2,,,,,,,,,,,,,18.19,18.16,1.00*13
$GPGSV,2,1,05,06,75,031,27,12,46,312,35,17,36,081,36,46,45,185,31*79
$GPGSV,2,2,05,51,43,200,31*4F
$GLGSV,1,1,01,86,,,28*60
$GNGLL,3902.03301,N,09434.60132,W,150159.40,A,A*6D
$GNRMC,150159.60,A,3902.03280,N,09434.60139,W,0.482,,281015,,,A*74
$GNVTG,,T,,M,0.482,N,0.893,K,A*31
$GNGGA,150159.60,3902.03280,N,09434.60139,W,1,03,18.17,255.9,M,-28.9,M,,*40
$GNGSA,A,2,06,17,12,,,,,,,,,,18.20,18.17,1.00*1B
$GNGSA,A,2,,,,,,,,,,,,,18.20,18.17,1.00*18
$GPGSV,2,1,05,06,75,031,27,12,46,312,35,17,36,081,36,46,45,185,31*79
$GPGSV,2,2,05,51,43,200,31*4F
$GLGSV,1,1,01,86,,,28*60
$GNGLL,3902.03280,N,09434.60139,W,150159.60,A,A*6C
$GNRMC,150159.80,A,3902.03271,N,09434.60142,W,0.439,,281015,,,A*78
$GNVTG,,T,,M,0.439,N,0.813,K,A*39
$GNGGA,150159.80,3902.03271,N,09434.60142,W,1,03,18.18,256.0,M,-28.9,M,,*49
$GNGSA,A,2,06,17,12,,,,,,,,,,18.21,18.18,1.00*15
$GNGSA,A,2,,,,,,,,,,,,,18.21,18.18,1.00*16
$GPGSV,2,1,05,06,75,031,27,12,46,312,35,17,36,081,36,46,45,185,31*79
$GPGSV,2,2,05,51,43,200,31*4F
$GLGSV,1,1,01,86,,,28*60
$GNGLL,3902.03271,N,09434.60142,W,150159.80,A,A*60
$GNRMC,150200.00,A,3902.03255,N,09434.60149,W,0.490,,281015,,,A*71
$GNVTG,,T,,M,0.490,N,0.908,K,A*31
$GNGGA,150200.00,3902.03255,N,09434.60149,W,1,03,18.19,255.9,M,-28.9,M,,*48
$GNGSA,A,2,06,17,12,,,,,,,,,,18.22,18.19,1.00*17
$GNGSA,A,2,,,,,,,,,,,,,18.22,18.19,1.00*14
$GPGSV,2,1,05,06,75,031,27,12,46,312,35,17,36,081,36,46,45,185,31*79
$GPGSV,2,2,05,51,43,200,31*4F
$GLGSV,1,1,01,86,,,28*60
$GNGLL,3902.03255,N,09434.60149,W,150200.00,A,A*6A
$GNRMC,150200.20,A,3902.03258,N,09434.60147,W,0.293,,281015,,,A*75
$GNVTG,,T,,M,0.293,N,0.542,K,A*36
$GNGGA,150200.20,3902.03258,N,09434.60147,W,1,03,18.20,256.1,M,-28.9,M,,*48
$GNGSA,A,2,06,17,12,,,,,,,,,,18.23,18.20,1.00*1C
$GNGSA,A,2,,,,,,,,,,,,,18.23,18.20,1.00*1F
$GPGSV,2,1,05,06,75,031,27,12,46,312,34,17,36,081,36,46,45,185,31*78
$GPGSV,2,2,05,51,43,200,31*4F
$GLGSV,1,1,01,86,,,28*60
$GNGLL,3902.03258,N,09434.60147,W,150200.20,A,A*6B
$GNRMC,150200.40,A,3902.03230,N,09434.60157,W,0.469,,281015,,,A*7F
$GNVTG,,T,,M,0.469,N,0.869,K,A*31
$GNGGA,150200.40,3902.03230,N,09434.60157,W,1,03,18.21,255.8,M,-28.9,M,,*4A
$GNGSA,A,2,06,17,12,,,,,,,,,,18.24,18.21,1.00*1A
$GNGSA,A,2,,,,,,,,,,,,,18.24,18.21,1.00*19
$GPGSV,2,1,05,06,75,031,27,12,46,312,35,17,36,081,36,46,45,185,31*79
$GPGSV,2,2,05,51,43,200,31*4F
$GLGSV,1,1,01,86,,,28*60
$GNGLL,3902.03230,N,09434.60157,W,150200.40,A,A*62
$GNRMC,150200.60,A,3902.03227,N,09434.60158,W,0.428,,281015,,,A*71
$GNVTG,,T,,M,0.428,N,0.793,K,A*3E
$GNGGA,150200.60,3902.03227,N,09434.60158,W,1,03,18.22,255.5,M,-28.9,M,,*4F
$GNGSA,A,2,06,17,12,,,,,,,,,,18.25,18.22,1.00*18
$GNGSA,A,2,,,,,,,,,,,,,18.25,18.22,1.00*1B
$GPGSV,2,1,05,06,75,031,26,12,46,312,35,17,36,081,36,46,45,185,32*7B
$GPGSV,2,2,05,51,43,200,31*4F
$GLGSV,1,1,01,86,,,27*6F
$GNGLL,3902.03227,N,09434.60158,W,150200.60,A,A*69
$GNRMC,150200.80,A,3902.03200,N,09434.60167,W,0.642,,281015,,,A*78
$GNVTG,,T,,M,0.642,N,1.188,K,A*3D
$GNGGA,150200.80,3902.03200,N,09434.60167,W,1,03,18.23,255.5,M,-28.9,M,,*49
$GNGSA,A,2,06,17,12,,,,,,,,,,18.26,18.23,1.00*1A
$GNGSA,A,2,,,,,,,,,,,,,18.26,18.23,1.00*19
$GPGSV,2,1,05,06,75,031,26,12,46,312,34,17,36,081,36,46,45,185,32*7A
$GPGSV,2,2,05,51,43,200,30*4E
$GLGSV,1,1,01,86,,,27*6F
$GNGLL,3902.03200,N,09434.60167,W,150200.80,A,A*6E
$GNRMC,150201.00,A,3902.03169,N,09434.60178,W,0.854,,281015,,,A*7A
$GNVTG,,T,,M,0.854,N,1.583,K,A*3B
$GNGGA,150201.00,3902.03169,N,09434.60178,W,1,03,18.24,255.8,M,-28.9,M,,*48
$GNGSA,A,2,06,17,12,,,,,,,,,,18.27,18.24,1.00*1C
$GNGSA,A,2,,,,,,,,,,,,,18.27,18.24,1.00*1F
$GPGSV,2,1,05,06,75,031,26,12,46,312,34,17,36,081,36,46,45,185,32*7A
$GPGSV,2,2,05,51,43,200,30*4E
$GLGSV,1,1,01,86,,,27*6F
$GNGLL,3902.03169,N,09434.60178,W,150201.00,A,A*65
$GNRMC,150201.20,A,3902.03162,N,09434.60180,W,0.741,,281015,,,A*7F
$GNVTG,,T,,M,0.741,N,1.373,K,A*39
$GNGGA,150201.20,3902.03162,N,09434.60180,W,1,03,18.25,255.8,M,-28.9,M,,*47
$GNGSA,A,2,06,17,12,,,,,,,,,,18.28,18.25,1.00*12
$GNGSA,A,2,,,,,,,,,,,,,18.28,18.25,1.00*11
$GPGSV,2,1,05,06,75,031,27,12,46,312,34,17,36,081,37,46,45,185,31*79
$GPGSV,2,2,05,51,43,200,30*4E
$GLGSV,1,1,01,86,,,27*6F
$GNGLL,3902.03162,N,09434.60180,W,150201.20,A,A*6B
$GNRMC,150201.40,A,3902.03118,N,09434.60196,W,0.731,,281015,,,A*74
$GNVTG,,T,,M,0.731,N,1.354,K,A*3B
$GNGGA,150201.40,3902.03118,N,09434.60196,W,1,03,18.26,256.6,M,-28.9,M,,*45
$GNGSA,A,2,06,17,12,,,,,,,,,,18.29,18.26,1.00*10
$GNGSA,A,2,,,,,,,,,,,,,18.29,18.26,1.00*13
$GPGSV,2,1,05,06,75,031,32,12,46,312,34,17,36,081,38,46,45,185,31*72
$GPGSV,2,2,05,51,43,200,29*46
$GLGSV,1,1,01,86,,,26*6E
$GNGLL,3902.03118,N,09434.60196,W,150201.40,A,A*67
$GNRMC,150201.60,A,3902.03098,N,09434.60202,W,0.741,,281015,,,A*76
$GNVTG,,T,,M,0.741,N,1.372,K,A*38
$GNGGA,150201.60,3902.03098,N,09434.60202,W,1,03,18.27,255.3,M,-28.9,M,,*47
$GNGSA,A,2,06,17,12,,,,,,,,,,18.30,18.27,1.00*19
$GNGSA,A,2,,,,,,,,,,,,,18.30,18.27,1.00*1A
$GPGSV,2,1,05,06,75,031,27,12,46,312,37,17,36,081,38,46,45,185,32*76
$GPGSV,2,2,05,51,43,200,29*46
$GLGSV,1,1,01,86,,,26*6E
$GNGLL,3902.03098,N,09434.60202,W,150201.60,A,A*62
$GNRMC,150201.80,A,3902.03061,N,09434.60215,W,0.907,205.87,281015,,,A*62
$GNVTG,205.87,T,,M,0.907,N,1.679,K,A*2C
$GNGGA,150201.80,3902.03061,N,09434.60215,W,1,03,18.28,255.2,M,-28.9,M,,*47
$GNGSA,A,2,06,17,12,,,,,,,,,,18.31,18.28,1.00*17
$GNGSA,A,2,,,,,,,,,,,,,18.31,18.28,1.00*14
$GPGSV,2,1,05,06,75,031,27,12,46,312,37,17,36,081,38,46,45,185,32*76
$GPGSV,2,2,05,51,43,200,29*46
$GLGSV,1,1,01,86,,,25*6D
$GNGLL,3902.03061,N,09434.60215,W,150201.80,A,A*6C
$GNRMC,150202.00,A,3902.03067,N,09434.60214,W,0.588,,281015,,,A*73
$GNVTG,,T,,M,0.588,N,1.090,K,A*30
$GNGGA,150202.00,3902.03067,N,09434.60214,W,1,03,18.29,255.2,M,-28.9,M,,*4A
$GNGSA,A,2,06,17,12,,,,,,,,,,18.32,18.29,1.00*15
$GNGSA,A,2,,,,,,,,,,,,,18.32,18.29,1.00*16
$GPGSV,2,1,05,06,75,031,28,12,46,312,37,17,36,081,38,46,45,185,32*79
$GPGSV,2,2,05,51,43,200,29*46
$GLGSV,1,1,01,86,,,25*6D
$GNGLL,3902.03067,N,09434.60214,W,150202.00,A,A*60
$GNRMC,150202.20,A,3902.03024,N,09434.60228,W,0.762,200.44,281015,,,A*63
$GNVTG,200.44,T,,M,0.762,N,1.410,K,A*26
$GNGGA,150202.20,3902.03024,N,09434.60228,W,1,03,18.30,255.5,M,-28.9,M,,*4F
$GNGSA,A,2,06,17,12,,,,,,,,,,18.33,18.30,1.00*1C
$GNGSA,A,2,,,,,,,,,,,,,18.33,18.30,1.00*1F
$GPGSV,2,1,05,06,75,031,27,12,46,312,36,17,36,081,38,46,45,185,31*74
$GPGSV,2,2,05,51,43,200,29*46
$GLGSV,1,1,02,86,,,25,,,,30*6D
$GNGLL,3902.03024,N,09434.60228,W,150202.20,A,A*6A
$GNRMC,150202.40,A,3902.03007,N,09434.60234,W,0.735,,281015,,,A*77
$GNVTG,,T,,M,0.735,N,1.361,K,A*39
$GNGGA,150202.40,3902.03007,N,09434.60234,W,1,03,18.31,255.6,M,-28.9,M,,*47
$GNGSA,A,2,06,17,12,,,,,,,,,,18.34,18.31,1.00*1A
$GNGSA,A,2,,,,,,,,,,,,,18.34,18.31,1.00*19
$GPGSV,2,1,05,06,75,031,27,12,46,312,36,17,36,081,37,46,45,185,31*7B
$GPGSV,2,2,05,51,43,200,29*46
$GLGSV,1,1,02,86,,,25,,,,30*6D
$GNGLL,3902.03007,N,09434.60234,W,150202.40,A,A*60
$GNRMC,150202.60,A,3902.02978,N,09434.60244,W,0.613,,281015,,,A*77
$GNVTG,,T,,M,0.613,N,1.135,K,A*3F
$GNGGA,150202.60,3902.02978,N,09434.60244,W,1,03,18.32,256.5,M,-28.9,M,,*41
$GNGSA,A,2,06,17,12,,,,,,,,,,18.35,18.32,1.00*18
$GNGSA,A,2,,,,,,,,,,,,,18.35,18.32,1.00*1B
$GPGSV,2,1,05,06,75,031,32,12,46,312,36,17,36,081,37,46,45,185,31*7F
$GPGSV,2,2,05,51,43,200,29*46
$GLGSV,1,1,02,86,,,24,,,,29*64
$GNGLL,3902.02978,N,09434.60244,W,150202.60,A,A*65
$GNRMC,150202.80,A,3902.02894,N,09434.60269,W,0.711,,281015,,,A*76
$GNVTG,,T,,M,0.711,N,1.318,K,A*31
$GNGGA,150202.80,3902.02894,N,09434.60269,W,1,03,18.33,258.2,M,-28.9,M,,*4B
$GNGSA,A,2,06,17,12,,,,,,,,,,18.36,18.33,1.00*1A
$GNGSA,A,2,,,,,,,,,,,,,18.36,18.33,1.00*19
$GPGSV,2,1,05,06,75,031,36,12,46,312,36,17,36,081,37,46,45,185,30*7A
$GPGSV,2,2,05,51,43,200,30*4E
$GLGSV,1,1,02,86,,,23,,,,29*63
$GNGLL,3902.02894,N,09434.60269,W,150202.80,A,A*67
$GNRMC,150203.00,A,3902.02882,N,09434.60273,W,0.703,,281015,,,A*70
$GNVTG,,T,,M,0.703,N,1.302,K,A*39
$GNGGA,150203.00,3902.02882,N,09434.60273,W,1,03,18.34,256.0,M,-28.9,M,,*45
$GNGSA,A,2,06,17,12,,,,,,,,,,18.37,18.34,1.00*1C
$GNGSA,A,2,,,,,,,,,,,,,18.37,18.34,1.00*1F
$GPGSV,2,1,05,06,75,031,28,12,46,312,36,17,36,081,35,46,45,185,29*7F
$GPGSV,2,2,05,51,43,200,29*46
$GLGSV,1,1,02,86,,,23,,,,29*63
$GNGLL,3902.02882,N,09434.60273,W,150203.00,A,A*62
$GNRMC,150203.20,A,3902.02866,N,09434.60278,W,0.791,,281015,,,A*78
$GNVTG,,T,,M,0.791,N,1.465,K,A*34
$GNGGA,150203.20,3902.02866,N,09434.60278,W,1,03,18.35,256.9,M,-28.9,M,,*4E
$GNGSA,A,2,06,17,12,,,,,,,,,,18.38,18.35,1.00*12
$GNGSA,A,2,,,,,,,,,,,,,18.38,18.35,1.00*11
$GPGSV,2,1,05,06,75,031,27,12,46,312,29,17,36,081,27,46,45,185,29*7D
$GPGSV,2,2,05,51,43,200,29*46
$GLGSV,1,1,02,86,,,22,,,,29*62
$GNGLL,3902.02866,N,09434.60278,W,150203.20,A,A*61
$GNRMC,150203.40,A,3902.02869,N,09434.60276,W,0.653,,281015,,,A*70
$GNVTG,,T,,M,0.653,N,1.209,K,A*37
$GNGGA,150203.40,3902.02869,N,09434.60276,W,1,03,18.36,256.4,M,-28.9,M,,*47
$GNGSA,A,2,06,17,12,,,,,,,,,,18.39,18.36,1.00*10
$GNGSA,A,2,,,,,,,,,,,,,18.39,18.36,1.00*13
$GPGSV,2,1,05,06,75,031,28,12,46,312,29,17,36,081,27,46,45,185,28*73
$GPGSV,2,2,05,51,43,200,30*4E
$GLGSV,1,1,02,86,,,21,,,,29*61
$GNGLL,3902.02869,N,09434.60276,W,150203.40,A,A*66
$GNRMC,150203.60,A,3902.02864,N,09434.60278,W,0.663,,281015,,,A*72
$GNVTG,,T,,M,0.663,N,1.228,K,A*37
$GNGGA,150203.60,3902.02864,N,09434.60278,W,1,03,18.37,256.0,M,-28.9,M,,*43
$GNGSA,A,2,06,17,12,,,,,,,,,,18.40,18.37,1.00*1F
$GNGSA,A,2,,,,,,,,,,,,,18.40,18.37,1.00*1C
$GPGSV,2,1,05,06,75,031,29,12,46,312,28,17,36,081,27,46,45,185,27*7C
$GPGSV,2,2,05,51,43,200,30*4E
$GLGSV,1,1,02,86,,,21,,,,29*61
$GNGLL,3902.02864,N,09434.60278,W,150203.60,A,A*67
$GNRMC,150203.80,A,3902.02864,N,09434.60277,W,0.658,,281015,,,A*7B
$GNVTG,,T,,M,0.658,N,1.219,K,A*3D
$GNGGA,150203.80,3902.02864,N,09434.60277,W,1,03,18.38,255.4,M,-28.9,M,,*4A
$GNGSA,A,2,06,17,12,,,,,,,,,,18.41,18.38,1.00*11
$GNGSA,A,2,,,,,,,,,,,,,18.41,18.38,1.00*12
$GPGSV,2,1,05,06,75,031,33,12,46,312,29,17,36,081,27,46,45,185,27*76
$GPGSV,2,2,05,51,43,200,33*4D
$GLGSV,1,1,02,86,,,21,,,,29*61
$GNGLL,3902.02864,N,09434.60277,W,150203.80,A,A*66
$GNRMC,150204.00,A,3902.02862,N,09434.60279,W,0.634,,281015,,,A*76
$GNVTG,,T,,M,0.634,N,1.174,K,A*3F
$GNGGA,150204.00,3902.02862,N,09434.60279,W,1,03,18.39,256.5,M,-28.9,M,,*4E
$GNGSA,A,2,06,17,12,,,,,,,,,,18.42,18.39,1.00*13
$GNGSA,A,2,,,,,,,,,,,,,18.42,18.39,1.00*10
$GPGSV,2,1,05,06,75,031,32,12,46,312,29,17,36,081,27,46,45,185,27*77
$GPGSV,2,2,05,51,43,200,33*4D
$GLGSV,1,1,02,86,,,20,,,,29*60
$GNGLL,3902.02862,N,09434.60279,W,150204.00,A,A*61
$GNRMC,150204.20,A,3902.02844,N,09434.60284,W,0.766,,281015,,,A*74
$GNVTG,,T,,M,0.766,N,1.419,K,A*37
$GNGGA,150204.20,3902.02844,N,09434.60284,W,1,03,18.41,256.7,M,-28.9,M,,*47
$GNGSA,A,2,06,17,12,,,,,,,,,,18.43,18.41,1.00*1D
$GNGSA,A,2,,,,,,,,,,,,,18.43,18.41,1.00*1E
$GPGSV,2,1,05,06,75,031,32,12,46,312,28,17,36,081,26,46,45,185,26*76
$GPGSV,2,2,05,51,43,200,32*4C
$GLGSV,1,1,02,86,,,20,,,,29*60
$GNGLL,3902.02844,N,09434.60284,W,150204.20,A,A*65
$GNRMC,150204.40,A,3902.02860,N,09434.60279,W,0.618,,281015,,,A*7E
$GNVTG,,T,,M,0.618,N,1.144,K,A*32
$GNGGA,150204.40,3902.02860,N,09434.60279,W,1,03,18.42,257.4,M,-28.9,M,,*44
$GNGSA,A,2,06,17,12,,,,,,,,,,18.44,18.42,1.00*19
$GNGSA,A,2,,,,,,,,,,,,,18.44,18.42,1.00*1A
$GPGSV,2,1,05,06,75,031,32,12,46,312,29,17,36,081,27,46,45,185,27*77
$GPGSV,2,2,05,51,43,200,32*4C
$GLGSV,1,1,02,86,,,20,,,,29*60
$GNGLL,3902.02860,N,09434.60279,W,150204.40,A,A*67
$GNRMC,150204.60,A,3902.02845,N,09434.60285,W,0.863,,281015,,,A*7A
$GNVTG,,T,,M,0.863,N,1.599,K,A*34
$GNGGA,150204.60,3902.02845,N,09434.60285,W,1,03,18.43,255.9,M,-28.9,M,,*4C
$GNGSA,A,2,06,17,12,,,,,,,,,,18.45,18.43,1.00*19
$GNGSA,A,2,,,,,,,,,,,,,18.45,18.43,1.00*1A
$GPGSV,2,1,05,06,75,031,31,12,46,312,30,17,36,081,27,46,45,185,26*7D
$GPGSV,2,2,05,51,43,200,32*4C
$GLGSV,1,1,02,86,,,19,,,,29*6A
$GNGLL,3902.02845,N,09434.60285,W,150204.60,A,A*61
$GNRMC,150204.80,A,3902.02829,N,09434.60292,W,1.062,200.93,281015,,,A*66
$GNVTG,200.93,T,,M,1.062,N,1.966,K,A*26
$GNGGA,150204.80,3902.02829,N,09434.60292,W,1,03,18.44,254.1,M,-28.9,M,,*40
$GNGSA,A,2,06,17,12,,,,,,,,,,18.46,18.44,1.00*1D
$GNGSA,A,2,,,,,,,,,,,,,18.46,18.44,1.00*1E
$GPGSV,1,1,04,06,75,031,31,12,46,312,34,17,36,081,35,51,43,200,32*73
$GLGSV,1,1,02,86,,,19,,,,29*6A
$GNGLL,3902.02829,N,09434.60292,W,150204.80,A,A*63
$GNRMC,150205.00,A,3902.02840,N,09434.60287,W,0.959,198.17,281015,,,A*6A
$GNVTG,198.17,T,,M,0.959,N,1.776,K,A*27
$GNGGA,150205.00,3902.02840,N,09434.60287,W,1,03,18.45,255.3,M,-28.9,M,,*40
$GNGSA,A,2,06,17,12,,,,,,,,,,18.47,18.45,1.00*1D
$GNGSA,A,2,,,,,,,,,,,,,18.47,18.45,1.00*1E
$GPGSV,1,1,03,06,75,031,31,12,46,312,34,17,36,081,36*47
$GLGSV,1,1,02,86,,,19,,,,22*61
$GNGLL,3902.02840,N,09434.60287,W,150205.00,A,A*61
$GNRMC,150205.20,A,3902.02843,N,09434.60285,W,0.963,196.45,281015,,,A*69
$GNVTG,196.45,T,,M,0.963,N,1.784,K,A*2A
$GNGGA,150205.20,3902.02843,N,09434.60285,W,1,03,18.46,255.6,M,-28.9,M,,*45
$GNGSA,A,2,06,17,12,,,,,,,,,,18.48,18.46,1.00*11
$GNGSA,A,2,,,,,,,,,,,,,18.48,18.46,1.00*12
$GPGSV,1,1,03,06,75,031,32,12,46,312,30,17,36,081,36*40
$GLGSV,1,1,02,86,,,18,,,,21*63
$GNGLL,3902.02843,N,09434.60285,W,150205.20,A,A*62
$GNRMC,150205.40,A,3902.02850,N,09434.60283,W,0.896,,281015,,,A*71
$GNVTG,,T,,M,0.896,N,1.659,K,A*31
$GNGGA,150205.40,3902.02850,N,09434.60283,W,1,03,18.47,257.4,M,-28.9,M,,*46
$GNGSA,A,2,06,17,12,,,,,,,,,,18.50,18.47,1.00*19
$GNGSA,A,2,,,,,,,,,,,,,18.50,18.47,1.00*1A
$GPGSV,1,1,03,06,75,031,35,12,46,312,30,17,36,081,36*47
$GLGSV,1,1,02,86,,,17,,,,22*6F
$GNGLL,3902.02850,N,09434.60283,W,150205.40,A,A*60
$GNRMC,150205.60,A,3902.02847,N,09434.60283,W,0.828,,281015,,,A*70
$GNVTG,,T,,M,0.828,N,1.534,K,A*3C
$GNGGA,150205.60,3902.02847,N,09434.60283,W,1,03,18.48,257.8,M,-28.9,M,,*41
$GNGSA,A,2,06,17,12,,,,,,,,,,18.51,18.48,1.00*17
$GNGSA,A,2,,,,,,,,,,,,,18.51,18.48,1.00*14
$GPGSV,1,1,03,06,75,031,35,12,46,312,30,17,36,081,36*47
$GLGSV,1,1,02,86,,,18,,,,29*6B
$GNGLL,3902.02847,N,09434.60283,W,150205.60,A,A*64
$GNRMC,150205.80,A,3902.02822,N,09434.60289,W,0.942,,281015,,,A*7A
$GNVTG,,T,,M,0.942,N,1.745,K,A*35
$GNGGA,150205.80,3902.02822,N,09434.60289,W,1,03,18.49,257.6,M,-28.9,M,,*49
$GNGSA,A,2,06,17,12,,,,,,,,,,18.52,18.49,1.00*15
$GNGSA,A,2,,,,,,,,,,,,,18.52,18.49,1.00*16
$GPGSV,1,1,03,06,75,031,35,12,46,312,29,17,36,081,33*4A
$GLGSV,1,1,02,86,,,19,,,,29*6A
$GNGLL,3902.02822,N,09434.60289,W,150205.80,A,A*63
$GNRMC,150206.00,V,,,,,,,281015,,,N*6C
$GNVTG,,,,,,,,,N*2E
$GNGGA,150206.00,,,,,0,00,99.99,,,,,,*78
$GNGSA,A,1,,,,,,,,,,,,,99.99,99.99,99.99*2E
$GNGSA,A,1,,,,,,,,,,,,,99.99,99.99,99.99*2E
$GPGSV,1,1,03,06,75,031,34,12,46,312,22,17,36,081,32*41
$GLGSV,1,1,02,86,,,28,,,,29*68
$GNGLL,,,,,150206.00,V,N*54
$GNRMC,150206.20,V,,,,,,,281015,,,N*6E
$GNVTG,,,,,,,,,N*2E
$GNGGA,150206.20,,,,,0,00,99.99,,,,,,*7A
$GNGSA,A,1,,,,,,,,,,,,,99.99,99.99,99.99*2E
$GNGSA,A,1,,,,,,,,,,,,,99.99,99.99,99.99*2E
$GPGSV,1,1,03,06,75,031,34,12,46,312,22,17,36,081,32*41
$GLGSV,1,1,02,86,,,29,,,,29*69
$GNGLL,,,,,150206.20,V,N*56
$GNRMC,150206.40,V,,,,,,,281015,,,N*68
$GNVTG,,,,,,,,,N*2E
$GNGGA,150206.40,,,,,0,00,99.99,,,,,,*7C
$GNGSA,A,1,,,,,,,,,,,,,99.99,99.99,99.99*2E
$GNGSA,A,1,,,,,,,,,,,,,99.99,99.99,99.99*2E
$GPGSV,1,1,03,06,75,031,34,12,46,312,29,17,36,081,32*4A
$GLGSV,1,1,02,86,,,29,,,,28*68
$GNGLL,,,,,150206.40,V,N*50
$GNRMC,150206.60,V,,,,,,,281015,,,N*6A
$GNVTG,,,,,,,,,N*2E
$GNGGA,150206.60,,,,,0,00,99.99,,,,,,*7E
$GNGSA,A,1,,,,,,,,,,,,,99.99,99.99,99.99*2E
$GNGSA,A,1,,,,,,,,,,,,,99.99,99.99,99.99*2E
$GPGSV,1,1,03,06,75,031,33,12,46,312,30,17,36,081,32*45
$GLGSV,1,1,02,86,,,30,,,,28*60
$GNGLL,,,,,150206.60,V,N*52
$GNRMC,150206.80,V,,,,,,,281015,,,N*64
$GNVTG,,,,,,,,,N*2E
$GNGGA,150206.80,,,,,0,00,99.99,,,,,,*70
$GNGSA,A,1,,,,,,,,,,,,,99.99,99.99,99.99*2E
$GNGSA,A,1,,,,,,,,,,,,,99.99,99.99,99.99*2E
$GPGSV,1,1,03,06,75,031,33,12,46,312,30,17,36,081,32*45
$GLGSV,1,1,02,86,,,30,,,,29*61
$GNGLL,,,,,150206.80,V,N*5C
$GNRMC,150207.00,V,,,,,,,281015,,,N*6D
$GNVTG,,,,,,,,,N*2E
$GNGGA,150207.00,,,,,0,00,99.99,,,,,,*79
$GNGSA,A,1,,,,,,,,,,,,,99.99,99.99,99.99*2E
$GNGSA,A,1,,,,,,,,,,,,,99.99,99.99,99.99*2E
$GPGSV,1,1,03,06,75,031,28,12,46,312,31,17,36,081,33*4F
$GLGSV,1,1,02,86,,,30,,,,28*60
$GNGLL,,,,,150207.00,V,N*55
$GNRMC,150207.20,V,,,,,,,281015,,,N*6F
$GNVTG,,,,,,,,,N*2E
$GNGGA,150207.20,,,,,0,00,99.99,,,,,,*7B
$GNGSA,A,1,,,,,,,,,,,,,99.99,99.99,99.99*2E
$GNGSA,A,1,,,,,,,,,,,,,99.99,99.99,99.99*2E
$GPGSV,1,1,03,06,75,031,28,12,46,312,31,17,36,081,35*49
$GLGSV,1,1,02,86,,,30,,,,28*60
$GNGLL,,,,,150207.20,V,N*57
$GNRMC,150207.40,V,,,,,,,281015,,,N*69
$GNVTG,,,,,,,,,N*2E
$GNGGA,150207.40,,,,,0,00,99.99,,,,,,*7D
$GNGSA,A,1,,,,,,,,,,,,,99.99,99.99,99.99*2E
$GNGSA,A,1,,,,,,,,,,,,,99.99,99.99,99.99*2E
$GPGSV,1,1,03,06,75,031,28,12,46,312,32,17,36,081,35*4A
$GLGSV,1,1,02,86,,,30,,,,28*60
$GNGLL,,,,,150207.40,V,N*51
$GNRMC,150207.60,V,,,,,,,281015,,,N*6B
$GNVTG,,,,,,,,,N*2E
$GNGGA,150207.60,,,,,0,00,99.99,,,,,,*7F
$GNGSA,A,1,,,,,,,,,,,,,99.99,99.99,99.99*2E
$GNGSA,A,1,,,,,,,,,,,,,99.99,99.99,99.99*2E
$GPGSV,1,1,03,06,75,031,28,12,46,312,32,17,36,081,34*4B
$GLGSV,1,1,02,86,,,30,,,,28*60
$GNGLL,,,,,150207.60,V,N*53
$GNRMC,150207.80,V,,,,,,,281015,,,N*65
$GNVTG,,,,,,,,,N*2E
$GNGGA,150207.80,,,,,0,00,99.99,,,,,,*71
$GNGSA,A,1,,,,,,,,,,,,,99.99,99.99,99.99*2E
$GNGSA,A,1,,,,,,,,,,,,,99.99,99.99,99.99*2E
$GPGSV,1,1,03,06,75,031,28,12,46,312,32,17,36,081,34*4B
$GLGSV,1,1,02,86,,,30,,,,28*60
$GNGLL,,,,,150207.80,V,N*5D
$GNRMC,150208.00,V,,,,,,,281015,,,N*62
$GNVTG,,,,,,,,,N*2E
$GNGGA,150208.00,,,,,0,00,99.99,,,,,,*76
$GNGSA,A,1,,,,,,,,,,,,,99.99,99.99,99.99*2E
$GNGSA,A,1,,,,,,,,,,,,,99.99,99.99,99.99*2E
$GPGSV,1,1,03,06,75,031,28,12,46,312,32,17,36,081,34*4B
$GLGSV,1,1,02,86,,,30,,,,28*60
$GNGLL,,,,,150208.00,V,N*5A
$GNRMC,150208.20,V,,,,,,,281015,,,N*60
$GNVTG,,,,,,,,,N*2E
$GNGGA,150208.20,,,,,0,00,99.99,,,,,,*74
$GNGSA,A,1,,,,,,,,,,,,,99.99,99.99,99.99*2E
$GNGSA,A,1,,,,,,,,,,,,,99.99,99.99,99.99*2E
$GPGSV,1,1,03,06,75,031,28,12,46,312,32,17,36,081,34*4B
$GLGSV,1,1,02,86,,,30,,,,28*60
$GNGLL,,,,,150208.20,V,N*58
$GNRMC,150208.40,V,,,,,,,281015,,,N*66
$GNVTG,,,,,,,,,N*2E
$GNGGA,150208.40,,,,,0,00,99.99,,,,,,*72
$GNGSA,A,1,,,,,,,,,,,,,99.99,99.99,99.99*2E
$GNGSA,A,1,,,,,,,,,,,,,99.99,99.99,99.99*2E
$GPGSV,1,1,03,06,75,031,29,12,46,312,32,17,36,081,34*4A
$GLGSV,1,1,02,86,,,30,,,,28*60
$GNGLL,,,,,150208.40,V,N*5E
$GNRMC,150208.60,V,,,,,,,281015,,,N*64
$GNVTG,,,,,,,,,N*2E
$GNGGA,150208.60,,,,,0,00,99.99,,,,,,*70
$GNGSA,A,1,,,,,,,,,,,,,99.99,99.99,99.99*2E
$GNGSA,A,1,,,,,,,,,,,,,99.99,99.99,99.99*2E
$GPGSV,1,1,03,06,75,031,29,12,46,312,33,17,36,081,34*4B
$GLGSV,1,1,02,86,,,29,,,,28*68
$GNGLL,,,,,150208.60,V,N*5C
$GNRMC,150208.80,V,,,,,,,281015,,,N*6A
$GNVTG,,,,,,,,,N*2E
$GNGGA,150208.80,,,,,0,00,99.99,,,,,,*7E
$GNGSA,A,1,,,,,,,,,,,,,99.99,99.99,99.99*2E
$GNGSA,A,1,,,,,,,,,,,,,99.99,99.99,99.99*2E
$GPGSV,1,1,03,06,75,031,29,12,46,312,33,17,36,081,34*4B
$GLGSV,1,1,02,86,,,29,,,,28*68
$GNGLL,,,,,150208.80,V,N*52
$GNRMC,150209.00,V,,,,,,,281015,,,N*63
$GNVTG,,,,,,,,,N*2E
$GNGGA,150209.00,,,,,0,00,99.99,,,,,,*77
$GNGSA,A,1,,,,,,,,,,,,,99.99,99.99,99.99*2E
$GNGSA,A,1,,,,,,,,,,,,,99.99,99.99,99.99*2E
$GPGSV,1,1,03,06,75,031,29,12,46,312,33,17,36,081,34*4B
$GLGSV,1,1,02,86,,,29,,,,28*68
$GNGLL,,,,,150209.00,V,N*5B
$GNRMC,150209.20,V,,,,,,,281015,,,N*61
$GNVTG,,,,,,,,,N*2E
$GNGGA,150209.20,,,,,0,00,99.99,,,,,,*75
$GNGSA,A,1,,,,,,,,,,,,,99.99,99.99,99.99*2E
$GNGSA,A,1,,,,,,,,,,,,,99.99,99.99,99.99*2E
$GPGSV,1,1,03,06,75,031,28,12,46,312,36,17,36,081,35*4E
$GLGSV,1,1,02,86,,,29,,,,28*68
$GNGLL,,,,,150209.20,V,N*59
$GNRMC,150209.40,V,,,,,,,281015,,,N*67
$GNVTG,,,,,,,,,N*2E
$GNGGA,150209.40,,,,,0,00,99.99,,,,,,*73
$GNGSA,A,1,,,,,,,,,,,,,99.99,99.99,99.99*2E
$GNGSA,A,1,,,,,,,,,,,,,99.99,99.99,99.99*2E
$GPGSV,1,1,03,06,75,031,28,12,46,312,36,17,36,081,35*4E
$GLGSV,1,1,02,86,,,28,,,,28*69
$GNGLL,,,,,150209.40,V,N*5F
$GNRMC,150209.60,V,,,,,,,281015,,,N*65
$GNVTG,,,,,,,,,N*2E
$GNGGA,150209.60,,,,,0,00,99.99,,,,,,*71
$GNGSA,A,1,,,,,,,,,,,,,99.99,99.99,99.99*2E
$GNGSA,A,1,,,,,,,,,,,,,99.99,99.99,99.99*2E
$GPGSV,1,1,03,06,75,031,28,12,46,312,36,17,36,081,35*4E
$GLGSV,1,1,02,86,,,28,,,,28*69
$GNGLL,,,,,150209.60,V,N*5D
$GNRMC,150209.80,V,,,,,,,281015,,,N*6B
$GNVTG,,,,,,,,,N*2E
$GNGGA,150209.80,,,,,0,00,99.99,,,,,,*7F
$GNGSA,A,1,,,,,,,,,,,,,99.99,99.99,99.99*2E
$GNGSA,A,1,,,,,,,,,,,,,99.99,99.99,99.99*2E
$GPGSV,1,1,03,06,75,031,29,12,46,312,36,17,36,081,35*4F
$GLGSV,1,1,02,86,,,28,,,,28*69
$GNGLL,,,,,150209.80,V,N*53
$GNRMC,150210.00,V,,,,,,,281015,,,N*6B
$GNVTG,,,,,,,,,N*2E
$GNGGA,150210.00,,,,,0,00,99.99,,,,,,*7F
$GNGSA,A,1,,,,,,,,,,,,,99.99,99.99,99.99*2E
$GNGSA,A,1,,,,,,,,,,,,,99.99,99.99,99.99*2E
$GPGSV,1,1,04,06,75,031,29,12,46,312,35,17,36,081,35,46,45,185,29*7F
$GLGSV,1,1,02,86,,,28,,,,28*69
$GNGLL,,,,,150210.00,V,N*53
$GNRMC,150210.20,V,,,,,,,281015,,,N*69
$GNVTG,,,,,,,,,N*2E
$GNGGA,150210.20,,,,,0,00,99.99,,,,,,*7D
$GNGSA,A,1,,,,,,,,,,,,,99.99,99.99,99.99*2E
$GNGSA,A,1,,,,,,,,,,,,,99.99,99.99,99.99*2E
$GPGSV,1,1,04,06,75,031,30,12,46,312,35,17,36,081,35,46,45,185,29*77
$GLGSV,1,1,02,86,,,28,,,,27*66
$GNGLL,,,,,150210.20,V,N*51
$GNRMC,150210.40,V,,,,,,,281015,,,N*6F
$GNVTG,,,,,,,,,N*2E
$GNGGA,150210.40,,,,,0,00,99.99,,,,,,*7B
$GNGSA,A,1,,,,,,,,,,,,,99.99,99.99,99.99*2E
$GNGSA,A,1,,,,,,,,,,,,,99.99,99.99,99.99*2E
$GPGSV,1,1,04,06,75,031,30,12,46,312,35,17,36,081,35,46,45,185,29*77
$GLGSV,1,1,02,86,,,28,,,,27*66
$GNGLL,,,,,150210.40,V,N*57
$GNRMC,150210.60,V,,,,,,,281015,,,N*6D
$GNVTG,,,,,,,,,N*2E
$GNGGA,150210.60,,,,,0,00,99.99,,,,,,*79
$GNGSA,A,1,,,,,,,,,,,,,99.99,99.99,99.99*2E
$GNGSA,A,1,,,,,,,,,,,,,99.99,99.99,99.99*2E
$GPGSV,1,1,04,06,75,031,31,12,46,312,35,17,36,081,35,46,45,185,30*7E
$GLGSV,1,1,02,86,,,28,,,,27*66
$GNGLL,,,,,150210.60,V,N*55
$GNRMC,150210.80,V,,,,,,,281015,,,N*63
$GNVTG,,,,,,,,,N*2E
$GNGGA,150210.80,,,,,0,00,99.99,,,,,,*77
$GNGSA,A,1,,,,,,,,,,,,,99.99,99.99,99.99*2E
$GNGSA,A,1,,,,,,,,,,,,,99.99,99.99,99.99*2E
$GPGSV,1,1,04,06,75,031,31,12,46,312,35,17,36,081,35,46,45,185,30*7E
$GLGSV,1,1,02,86,,,28,,,,27*66
$GNGLL,,,,,150210.80,V,N*5B
$GNRMC,150211.00,V,,,,,,,281015,,,N*6A
$GNVTG,,,,,,,,,N*2E
$GNGGA,150211.00,,,,,0,00,99.99,,,,,,*7E
$GNGSA,A,1,,,,,,,,,,,,,99.99,99.99,99.99*2E
$GNGSA,A,1,,,,,,,,,,,,,99.99,99.99,99.99*2E
$GPGSV,1,1,04,06,75,031,31,12,46,312,35,17,36,081,35,46,45,185,31*7F
$GLGSV,1,1,02,86,,,28,,,,27*66
$GNGLL,,,,,150211.00,V,N*52
$GNRMC,150211.20,V,,,,,,,281015,,,N*68
$GNVTG,,,,,,,,,N*2E
$GNGGA,150211.20,,,,,0,00,99.99,,,,,,*7C
$GNGSA,A,1,,,,,,,,,,,,,99.99,99.99,99.99*2E
$GNGSA,A,1,,,,,,,,,,,,,99.99,99.99,99.99*2E
$GPGSV,1,1,04,06,75,031,32,12,46,312,35,17,36,081,35,46,45,185,31*7C
$GLGSV,1,1,02,86,,,28,,,,28*69
$GNGLL,,,,,150211.20,V,N*50
$GNRMC,150211.40,V,,,,,,,281015,,,N*6E
$GNVTG,,,,,,,,,N*2E
$GNGGA,150211.40,,,,,0,00,99.99,,,,,,*7A
$GNGSA,A,1,,,,,,,,,,,,,99.99,99.99,99.99*2E
$GNGSA,A,1,,,,,,,,,,,,,99.99,99.99,99.99*2E
$GPGSV,1,1,04,06,75,031,32,12,46,312,35,17,36,081,35,46,45,185,31*7C
$GLGSV,1,1,02,86,,,28,,,,27*66
$GNGLL,,,,,150211.40,V,N*56
$GNRMC,150211.60,V,,,,,,,281015,,,N*6C
$GNVTG,,,,,,,,,N*2E
$GNGGA,150211.60,,,,,0,00,99.99,,,,,,*78
$GNGSA,A,1,,,,,,,,,,,,,99.99,99.99,99.99*2E
$GNGSA,A,1,,,,,,,,,,,,,99.99,99.99,99.99*2E
$GPGSV,1,1,04,06,75,031,32,12,46,312,35,17,36,081,34,46,45,185,31*7D
$GLGSV,1,1,02,86,,,28,,,,27*66
$GNGLL,,,,,150211.60,V,N*54
$GNRMC,150211.80,V,,,,,,,281015,,,N*62
$GNVTG,,,,,,,,,N*2E
$GNGGA,150211.80,,,,,0,00,99.99,,,,,,*76
$GNGSA,A,1,,,,,,,,,,,,,99.99,99.99,99.99*2E
$GNGSA,A,1,,,,,,,,,,,,,99.99,99.99,99.99*2E
$GPGSV,1,1,04,06,75,031,32,12,46,312,35,17,36,081,34,46,45,185,31*7D
$GLGSV,1,1,02,86,,,28,,,,27*66
$GNGLL,,,,,150211.80,V,N*5A
$GNRMC,150212.00,A,3902.02615,N,09434.60350,W,1.160,196.21,281015,,,A*61
$GNVTG,196.21,T,,M,1.160,N,2.148,K,A*27
$GNGGA,150212.00,3902.02615,N,09434.60350,W,1,03,18.82,258.0,M,-28.9,M,,*46
$GNGSA,A,2,06,17,12,,,,,,,,,,18.85,18.82,1.00*18
$GNGSA,A,2,,,,,,,,,,,,,18.85,18.82,1.00*1B
$GPGSV,1,1,04,06,75,031,31,12,46,312,35,17,36,081,35,46,45,185,31*7F
$GLGSV,1,1,02,86,,,28,,,,27*66
$GNGLL,3902.02615,N,09434.60350,W,150212.00,A,A*62
$GNRMC,150212.20,A,3902.02634,N,09434.60347,W,0.991,,281015,,,A*72
$GNVTG,,T,,M,0.991,N,1.836,K,A*30
$GNGGA,150212.20,3902.02634,N,09434.60347,W,1,03,18.83,256.7,M,-28.9,M,,*49
$GNGSA,A,2,06,17,12,,,,,,,,,,18.86,18.83,1.00*1A
$GNGSA,A,2,,,,,,,,,,,,,18.86,18.83,1.00*19
$GPGSV,1,1,04,06,75,031,31,12,46,312,35,17,36,081,35,46,45,185,31*7F
$GLGSV,1,1,02,86,,,28,,,,26*67
$GNGLL,3902.02634,N,09434.60347,W,150212.20,A,A*65
$GNRMC,150212.40,A,3902.02645,N,09434.60342,W,0.961,,281015,,,A*78
$GNVTG,,T,,M,0.961,N,1.780,K,A*3D
$GNGGA,150212.40,3902.02645,N,09434.60342,W,1,03,18.84,254.4,M,-28.9,M,,*4A
$GNGSA,A,2,06,17,12,,,,,,,,,,18.87,18.84,1.00*1C
$GNGSA,A,2,,,,,,,,,,,,,18.87,18.84,1.00*1F
$GPGSV,1,1,04,06,75,031,31,12,46,312,35,17,36,081,34,46,45,185,31*7E
$GLGSV,1,1,02,86,,,28,,,,27*66
$GNGLL,3902.02645,N,09434.60342,W,150212.40,A,A*60
$GNRMC,150212.60,A,3902.02658,N,09434.60338,W,0.836,,281015,,,A*78
$GNVTG,,T,,M,0.836,N,1.548,K,A*38
$GNGGA,150212.60,3902.02658,N,09434.60338,W,1,03,18.86,256.2,M,-28.9,M,,*4F
$GNGSA,A,2,06,17,12,,,,,,,,,,18.88,18.86,1.00*11
$GNGSA,A,2,,,,,,,,,,,,,18.88,18.86,1.00*12
$GPGSV,1,1,04,06,75,031,31,12,46,312,35,17,36,081,35,46,45,185,31*7F
$GLGSV,1,1,02,86,,,28,,,,27*66
$GNGLL,3902.02658,N,09434.60338,W,150212.60,A,A*63
$GNRMC,150212.80,A,3902.02660,N,09434.60339,W,0.810,,281015,,,A*78
$GNVTG,,T,,M,0.810,N,1.500,K,A*30
$GNGGA,150212.80,3902.02660,N,09434.60339,W,1,03,18.87,256.0,M,-28.9,M,,*48
$GNGSA,A,2,06,17,12,,,,,,,,,,18.89,18.87,1.00*11
$GNGSA,A,2,,,,,,,,,,,,,18.89,18.87,1.00*12
$GPGSV,1,1,04,06,75,031,32,12,46,312,35,17,36,081,35,46,45,185,31*7C
$GLGSV,1,1,02,86,,,28,,,,27*66
$GNGLL,3902.02660,N,09434.60339,W,150212.80,A,A*67
$GNRMC,150213.00,A,3902.02641,N,09434.60351,W,0.865,,281015,,,A*7E
$GNVTG,,T,,M,0.865,N,1.602,K,A*33
$GNGGA,150213.00,3902.02641,N,09434.60351,W,1,03,18.88,257.4,M,-28.9,M,,*46
$GNGSA,A,2,06,17,12,,,,,,,,,,18.90,18.88,1.00*16
$GNGSA,A,2,,,,,,,,,,,,,18.90,18.88,1.00*15
$GPGSV,1,1,04,06,75,031,32,12,46,312,35,17,36,081,35,46,45,185,31*7C
$GLGSV,1,1,02,86,,,28,,,,28*69
$GNGLL,3902.02641,N,09434.60351,W,150213.00,A,A*63
$GNRMC,150213.20,A,3902.02638,N,09434.60353,W,0.842,,281015,,,A*75
$GNVTG,,T,,M,0.842,N,1.559,K,A*3B
$GNGGA,150213.20,3902.02638,N,09434.60353,W,1,03,18.89,256.9,M,-28.9,M,,*45
$GNGSA,A,2,06,17,12,,,,,,,,,,18.91,18.89,1.00*16
$GNGSA,A,2,,,,,,,,,,,,,18.91,18.89,1.00*15
$GPGSV,1,1,04,06,75,031,32,12,46,312,35,17,36,081,35,46,45,185,31*7C
$GLGSV,1,1,02,86,,,28,,,,27*66
$GNGLL,3902.02638,N,09434.60353,W,150213.20,A,A*6D
$GNRMC,150213.40,A,3902.02622,N,09434.60363,W,0.894,,281015,,,A*70
$GNVTG,,T,,M,0.894,N,1.656,K,A*3C
$GNGGA,150213.40,3902.02622,N,09434.60363,W,1,03,18.90,257.4,M,-28.9,M,,*4F
$GNGSA,A,2,06,17,12,,,,,,,,,,18.93,18.90,1.00*1C
$GNGSA,A,2,,,,,,,,,,,,,18.93,18.90,1.00*1F
$GPGSV,1,1,04,06,75,031,32,12,46,312,35,17,36,081,35,46,45,185,31*7C
$GLGSV,1,1,02,86,,,28,,,,27*66
$GNGLL,3902.02622,N,09434.60363,W,150213.40,A,A*63
$GNRMC,150213.60,A,3902.02617,N,09434.60365,W,0.886,,281015,,,A*71
$GNVTG,,T,,M,0.886,N,1.640,K,A*38
$GNGGA,150213.60,3902.02617,N,09434.60365,W,1,03,18.91,257.5,M,-28.9,M,,*4D
$GNGSA,A,2,06,17,12,,,,,,,,,,18.94,18.91,1.00*1A
$GNGSA,A,2,,,,,,,,,,,,,18.94,18.91,1.00*19
$GPGSV,1,1,04,06,75,031,32,12,46,312,35,17,36,081,35,46,45,185,31*7C
$GLGSV,1,1,02,86,,,28,,,,27*66
$GNGLL,3902.02617,N,09434.60365,W,150213.60,A,A*61
$GNRMC,150213.80,A,3902.02604,N,09434.60371,W,0.913,,281015,,,A*75
$GNVTG,,T,,M,0.913,N,1.692,K,A*3A
$GNGGA,150213.80,3902.02604,N,09434.60371,W,1,03,18.92,258.3,M,-28.9,M,,*4E
$GNGSA,A,2,06,17,12,,,,,,,,,,18.95,18.92,1.00*18
$GNGSA,A,2,,,,,,,,,,,,,18.95,18.92,1.00*1B
$GPGSV,1,1,04,06,75,031,32,12,46,312,34,17,36,081,34,46,45,185,31*7C
$GLGSV,1,1,02,86,,,28,,,,27*66
$GNGLL,3902.02604,N,09434.60371,W,150213.80,A,A*68
$GNRMC,150214.00,A,3902.02585,N,09434.60378,W,0.951,,281015,,,A*7F
$GNVTG,,T,,M,0.951,N,1.762,K,A*32
$GNGGA,150214.00,3902.02585,N,09434.60378,W,1,03,18.93,258.6,M,-28.9,M,,*46
$GNGSA,A,2,06,17,12,,,,,,,,,,18.96,18.93,1.00*1A
$GNGSA,A,2,,,,,,,,,,,,,18.96,18.93,1.00*19
$GPGSV,1,1,04,06,75,031,32,12,46,312,34,17,36,081,34,46,45,185,31*7C
$GLGSV,1,1,02,86,,,28,,,,27*66
$GNGLL,3902.02585,N,09434.60378,W,150214.00,A,A*64
$GNRMC,150214.20,A,3902.02560,N,09434.60388,W,0.980,,281015,,,A*75
$GNVTG,,T,,M,0.980,N,1.816,K,A*32
$GNGGA,150214.20,3902.02560,N,09434.60388,W,1,03,18.94,259.4,M,-28.9,M,,*44
$GNGSA,A,2,06,17,12,,,,,,,,,,18.97,18.94,1.00*1C
$GNGSA,A,2,,,,,,,,,,,,,18.97,18.94,1.00*1F
$GPGSV,1,1,04,06,75,031,32,12,46,312,34,17,36,081,34,46,45,185,31*7C
$GLGSV,1,1,02,86,,,28,,,,28*69
$GNGLL,3902.02560,N,09434.60388,W,150214.20,A,A*62
$GNRMC,150214.40,A,3902.02539,N,09434.60395,W,0.983,,281015,,,A*70
$GNVTG,,T,,M,0.983,N,1.821,K,A*35
$GNGGA,150214.40,3902.02539,N,09434.60395,W,1,03,18.95,259.1,M,-28.9,M,,*46
$GNGSA,A,2,06,17,12,,,,,,,,,,18.98,18.95,1.00*12
$GNGSA,A,2,,,,,,,,,,,,,18.98,18.95,1.00*11
$GPGSV,1,1,04,06,75,031,32,12,46,312,34,17,36,081,34,46,45,185,31*7C
$GLGSV,1,1,02,86,,,27,,,,28*66
$GNGLL,3902.02539,N,09434.60395,W,150214.40,A,A*64
$GNRMC,150214.60,A,3902.02517,N,09434.60404,W,0.957,,281015,,,A*78
$GNVTG,,T,,M,0.957,N,1.772,K,A*35
$GNGGA,150214.60,3902.02517,N,09434.60404,W,1,03,18.97,259.7,M,-28.9,M,,*43
$GNGSA,A,2,06,17,12,,,,,,,,,,18.99,18.97,1.00*11
$GNGSA,A,2,,,,,,,,,,,,,18.99,18.97,1.00*12
$GPGSV,1,1,04,06,75,031,32,12,46,312,34,17,36,081,34,46,45,185,31*7C
$GLGSV,1,1,02,86,,,27,,,,28*66
$GNGLL,3902.02517,N,09434.60404,W,150214.60,A,A*65
$GNRMC,150214.80,A,3902.02491,N,09434.60413,W,0.970,,281015,,,A*7A
$GNVTG,,T,,M,0.970,N,1.796,K,A*3A
$GNGGA,150214.80,3902.02491,N,09434.60413,W,1,03,18.98,259.2,M,-28.9,M,,*4E
$GNGSA,A,2,06,17,12,,,,,,,,,,19.00,18.98,1.00*1F
$GNGSA,A,2,,,,,,,,,,,,,19.00,18.98,1.00*1C
$GPGSV,1,1,04,06,75,031,32,12,46,312,34,17,36,081,34,46,45,185,31*7C
$GLGSV,1,1,02,86,,,27,,,,28*66
$GNGLL,3902.02491,N,09434.60413,W,150214.80,A,A*62
$GNRMC,150215.00,A,3902.02470,N,09434.60420,W,0.955,,281015,,,A*7B
$GNVTG,,T,,M,0.955,N,1.769,K,A*3D
$GNGGA,150215.00,3902.02470,N,09434.60420,W,1,03,18.99,259.6,M,-28.9,M,,*4D
$GNGSA,A,2,06,17,12,,,,,,,,,,19.01,18.99,1.00*1F
$GNGSA,A,2,,,,,,,,,,,,,19.01,18.99,1.00*1C
$GPGSV,1,1,04,06,75,031,32,12,46,312,34,17,36,081,34,46,45,185,31*7C
$GLGSV,1,1,02,86,,,27,,,,27*69
$GNGLL,3902.02470,N,09434.60420,W,150215.00,A,A*64
$GNRMC,150215.20,A,3902.02459,N,09434.60424,W,0.933,,281015,,,A*76
$GNVTG,,T,,M,0.933,N,1.729,K,A*39
$GNGGA,150215.20,3902.02459,N,09434.60424,W,1,03,19.00,258.7,M,-28.9,M,,*41
$GNGSA,A,2,06,17,12,,,,,,,,,,19.03,19.00,1.00*1C
$GNGSA,A,2,,,,,,,,,,,,,19.03,19.00,1.00*1F
$GPGSV,1,1,04,06,75,031,32,12,46,312,35,17,36,081,34,46,45,185,31*7D
$GLGSV,1,1,02,86,,,28,,,,28*69
$GNGLL,3902.02459,N,09434.60424,W,150215.20,A,A*69
$GNRMC,150215.40,A,3902.02448,N,09434.60427,W,0.931,,281015,,,A*71
$GNVTG,,T,,M,0.931,N,1.724,K,A*36
$GNGGA,150215.40,3902.02448,N,09434.60427,W,1,03,19.01,258.5,M,-28.9,M,,*47
$GNGSA,A,2,06,17,12,,,,,,,,,,19.04,19.01,1.00*1A
$GNGSA,A,2,,,,,,,,,,,,,19.04,19.01,1.00*19
$GPGSV,1,1,04,06,75,031,32,12,46,312,35,17,36,081,34,46,45,185,31*7D
$GLGSV,1,1,02,86,,,28,,,,27*66
$GNGLL,3902.02448,N,09434.60427,W,150215.40,A,A*6C
$GNRMC,150215.60,A,3902.02455,N,09434.60428,W,0.868,,281015,,,A*7D
$GNVTG,,T,,M,0.868,N,1.607,K,A*3B
$GNGGA,150215.60,3902.02455,N,09434.60428,W,1,03,19.02,257.7,M,-28.9,M,,*48
$GNGSA,A,2,06,17,12,,,,,,,,,,19.05,19.02,1.00*18
$GNGSA,A,2,,,,,,,,,,,,,19.05,19.02,1.00*1B
$GPGSV,1,1,04,06,75,031,31,12,46,312,35,17,36,081,34,46,45,185,31*7E
$GLGSV,1,1,02,86,,,27,,,,27*69
$GNGLL,3902.02455,N,09434.60428,W,150215.60,A,A*6D
$GNRMC,150215.80,A,3902.02456,N,09434.60427,W,0.802,,281015,,,A*73
$GNVTG,,T,,M,0.802,N,1.486,K,A*3C
$GNGGA,150215.80,3902.02456,N,09434.60427,W,1,03,19.03,258.0,M,-28.9,M,,*43
$GNGSA,A,2,06,17,12,,,,,,,,,,19.06,19.03,1.00*1A
$GNGSA,A,2,,,,,,,,,,,,,19.06,19.03,1.00*19
$GPGSV,1,1,04,06,75,031,32,12,46,312,34,17,36,081,34,46,45,185,31*7C
$GLGSV,1,1,02,86,,,27,,,,27*69
$GNGLL,3902.02456,N,09434.60427,W,150215.80,A,A*6F
$GNRMC,150216.00,A,3902.02456,N,09434.60428,W,0.718,,281015,,,A*73
$GNVTG,,T,,M,0.718,N,1.329,K,A*3A
$GNGGA,150216.00,3902.02456,N,09434.60428,W,1,03,19.04,258.4,M,-28.9,M,,*44
$GNGSA,A,2,06,17,12,,,,,,,,,,19.07,19.04,1.00*1C
$GNGSA,A,2,,,,,,,,,,,,,19.07,19.04,1.00*1F
$GPGSV,1,1,04,06,75,031,32,12,46,312,35,17,36,081,34,46,45,185,31*7D
$GLGSV,1,1,02,86,,,27,,,,27*69
$GNGLL,3902.02456,N,09434.60428,W,150216.00,A,A*6B
$GNRMC,150216.20,A,3902.02434,N,09434.60434,W,0.782,,281015,,,A*7B
$GNVTG,,T,,M,0.782,N,1.449,K,A*38
$GNGGA,150216.20,3902.02434,N,09434.60434,W,1,03,19.06,258.4,M,-28.9,M,,*4D
$GNGSA,A,2,06,17,12,,,,,,,,,,19.08,19.06,1.00*11
$GNGSA,A,2,,,,,,,,,,,,,19.08,19.06,1.00*12
$GPGSV,1,1,04,06,75,031,31,12,46,312,35,17,36,081,34,46,45,185,31*7E
$GLGSV,1,1,02,86,,,27,,,,28*66
$GNGLL,3902.02434,N,09434.60434,W,150216.20,A,A*60
$GNRMC,150216.40,V,,,,,,,281015,,,N*69
$GNVTG,,,,,,,,,N*2E
$GNGGA,150216.40,,,,,0,00,99.99,,,,,,*7D
$GNGSA,A,1,,,,,,,,,,,,,99.99,99.99,99.99*2E
$GNGSA,A,1,,,,,,,,,,,,,99.99,99.99,99.99*2E
$GPGSV,1,1,04,06,75,031,26,12,46,312,34,17,36,081,34,46,45,185,31*79
$GLGSV,1,1,02,86,,,27,,,,29*67
$GNGLL,,,,,150216.40,V,N*51
$GNRMC,150216.60,V,,,,,,,281015,,,N*6B
$GNVTG,,,,,,,,,N*2E
$GNGGA,150216.60,,,,,0,00,99.99,,,,,,*7F
$GNGSA,A,1,,,,,,,,,,,,,99.99,99.99,99.99*2E
$GNGSA,A,1,,,,,,,,,,,,,99.99,99.99,99.99*2E
$GPGSV,1,1,04,06,75,031,26,12,46,312,34,17,36,081,35,46,45,185,32*7B
$GLGSV,1,1,02,86,,,27,,,,29*67
$GNGLL,,,,,150216.60,V,N*53
$GNRMC,150216.80,V,,,,,,,281015,,,N*65
$GNVTG,,,,,,,,,N*2E
$GNGGA,150216.80,,,,,0,00,99.99,,,,,,*71
$GNGSA,A,1,,,,,,,,,,,,,99.99,99.99,99.99*2E
$GNGSA,A,1,,,,,,,,,,,,,99.99,99.99,99.99*2E
$GPGSV,1,1,04,06,75,031,26,12,46,312,31,17,36,081,35,46,45,185,32*7E
$GLGSV,1,1,02,86,,,27,,,,29*67
$GNGLL,,,,,150216.80,V,N*5D
$GNRMC,150217.00,V,,,,,,,281015,,,N*6C
$GNVTG,,,,,,,,,N*2E
$GNGGA,150217.00,,,,,0,00,99.99,,,,,,*78
$GNGSA,A,1,,,,,,,,,,,,,99.99,99.99,99.99*2E
$GNGSA,A,1,,,,,,,,,,,,,99.99,99.99,99.99*2E
$GPGSV,1,1,04,06,75,031,27,12,46,312,26,17,36,081,35,46,45,185,32*79
$GLGSV,1,1,02,86,,,27,,,,29*67
$GNGLL,,,,,150217.00,V,N*54
$GNRMC,150217.20,V,,,,,,,281015,,,N*6E
$GNVTG,,,,,,,,,N*2E
$GNGGA,150217.20,,,,,0,00,99.99,,,,,,*7A
$GNGSA,A,1,,,,,,,,,,,,,99.99,99.99,99.99*2E
$GNGSA,A,1,,,,,,,,,,,,,99.99,99.99,99.99*2E
$GPGSV,1,1,04,06,75,031,32,12,46,312,31,17,36,081,35,46,45,185,32*7B
$GLGSV,1,1,02,86,,,26,,,,29*66
$GNGLL,,,,,150217.20,V,N*56
$GNRMC,150217.40,V,,,,,,,281015,,,N*68
$GNVTG,,,,,,,,,N*2E
$GNGGA,150217.40,,,,,0,00,99.99,,,,,,*7C
$GNGSA,A,1,,,,,,,,,,,,,99.99,99.99,99.99*2E
$GNGSA,A,1,,,,,,,,,,,,,99.99,99.99,99.99*2E
$GPGSV,1,1,04,06,75,031,32,12,46,312,31,17,36,081,35,46,45,185,32*7B
$GLGSV,1,1,02,86,,,25,,,,30*6D
$GNGLL,,,,,150217.40,V,N*50
$GNRMC,150217.60,V,,,,,,,281015,,,N*6A
$GNVTG,,,,,,,,,N*2E
$GNGGA,150217.60,,,,,0,00,99.99,,,,,,*7E
$GNGSA,A,1,,,,,,,,,,,,,99.99,99.99,99.99*2E
$GNGSA,A,1,,,,,,,,,,,,,99.99,99.99,99.99*2E
$GPGSV,1,1,04,06,75,031,32,12,46,312,31,17,36,081,35,46,45,185,32*7B
$GLGSV,1,1,02,86,,,24,,,,30*6C
$GNGLL,,,,,150217.60,V,N*52
$GNRMC,150217.80,V,,,,,,,281015,,,N*64
$GNVTG,,,,,,,,,N*2E
$GNGGA,150217.80,,,,,0,00,99.99,,,,,,*70
$GNGSA,A,1,,,,,,,,,,,,,99.99,99.99,99.99*2E
$GNGSA,A,1,,,,,,,,,,,,,99.99,99.99,99.99*2E
$GPGSV,1,1,04,06,75,031,33,12,46,312,31,17,36,081,35,46,45,185,31*79
$GLGSV,1,1,02,86,,,23,,,,30*6B
$GNGLL,,,,,150217.80,V,N*5C
$GNRMC,150218.00,V,,,,,,,281015,,,N*63
$GNVTG,,,,,,,,,N*2E
$GNGGA,150218.00,,,,,0,00,99.99,,,,,,*77
$GNGSA,A,1,,,,,,,,,,,,,99.99,99.99,99.99*2E
$GNGSA,A,1,,,,,,,,,,,,,99.99,99.99,99.99*2E
$GPGSV,1,1,04,06,75,031,33,12,46,312,31,17,36,081,32,46,45,185,31*7E
$GLGSV,1,1,02,86,,,22,,,,31*6B
$GNGLL,,,,,150218.00,V,N*5B
$GNRMC,150218.20,V,,,,,,,281015,,,N*61
$GNVTG,,,,,,,,,N*2E
$GNGGA,150218.20,,,,,0,00,99.99,,,,,,*75
$GNGSA,A,1,,,,,,,,,,,,,99.99,99.99,99.99*2E
$GNGSA,A,1,,,,,,,,,,,,,99.99,99.99,99.99*2E
$GPGSV,1,1,04,06,75,031,34,12,46,312,31,17,36,081,32,46,45,185,30*78
$GLGSV,1,1,02,86,,,21,,,,31*68
$GNGLL,,,,,150218.20,V,N*59
$GNRMC,150218.40,V,,,,,,,281015,,,N*67
$GNVTG,,,,,,,,,N*2E
$GNGGA,150218.40,,,,,0,00,99.99,,,,,,*73
$GNGSA,A,1,,,,,,,,,,,,,99.99,99.99,99.99*2E
$GNGSA,A,1,,,,,,,,,,,,,99.99,99.99,99.99*2E
$GPGSV,1,1,04,06,75,031,34,12,46,312,31,17,36,081,32,46,45,185,30*78
$GLGSV,1,1,02,86,,,21,,,,31*68
$GNGLL,,,,,150218.40,V,N*5F
$GNRMC,150218.60,V,,,,,,,281015,,,N*65
$GNVTG,,,,,,,,,N*2E
$GNGGA,150218.60,,,,,0,00,99.99,,,,,,*71
$GNGSA,A,1,,,,,,,,,,,,,99.99,99.99,99.99*2E
$GNGSA,A,1,,,,,,,,,,,,,99.99,99.99,99.99*2E
$GPGSV,1,1,04,06,75,031,35,12,46,312,31,17,36,081,32,46,45,185,30*79
$GLGSV,1,1,02,86,,,20,,,,31*69
$GNGLL,,,,,150218.60,V,N*5D
$GNRMC,150218.80,V,,,,,,,281015,,,N*6B
$GNVTG,,,,,,,,,N*2E
$GNGGA,150218.80,,,,,0,00,99.99,,,,,,*7F
$GNGSA,A,1,,,,,,,,,,,,,99.99,99.99,99.99*2E
$GNGSA,A,1,,,,,,,,,,,,,99.99,99.99,99.99*2E
$GPGSV,1,1,04,06,75,031,35,12,46,312,31,17,36,081,32,46,45,185,30*79
$GLGSV,1,1,02,86,,,20,,,,31*69
$GNGLL,,,,,150218.80,V,N*53
$GNRMC,150219.00,V,,,,,,,281015,,,N*62
$GNVTG,,,,,,,,,N*2E
$GNGGA,150219.00,,,,,0,00,99.99,,,,,,*76
$GNGSA,A,1,,,,,,,,,,,,,99.99,99.99,99.99*2E
$GNGSA,A,1,,,,,,,,,,,,,99.99,99.99,99.99*2E
$GPGSV,1,1,04,06,75,031,35,12,46,312,31,17,36,081,32,46,45,185,29*71
$GLGSV,1,1,02,86,,,19,,,,31*63
$GNGLL,,,,,150219.00,V,N*5A
$GNRMC,150219.20,V,,,,,,,281015,,,N*60
$GNVTG,,,,,,,,,N*2E
$GNGGA,150219.20,,,,,0,00,99.99,,,,,,*74
$GNGSA,A,1,,,,,,,,,,,,,99.99,99.99,99.99*2E
$GNGSA,A,1,,,,,,,,,,,,,99.99,99.99,99.99*2E
$GPGSV,1,1,04,06,75,031,35,12,46,312,31,17,36,081,32,46,45,185,29*71
$GLGSV,1,1,02,86,,,18,,,,31*62
$GNGLL,,,,,150219.20,V,N*58
$GNRMC,150219.40,V,,,,,,,281015,,,N*66
$GNVTG,,,,,,,,,N*2E
$GNGGA,150219.40,,,,,0,00,99.99,,,,,,*72
$GNGSA,A,1,,,,,,,,,,,,,99.99,99.99,99.99*2E
$GNGSA,A,1,,,,,,,,,,,,,99.99,99.99,99.99*2E
$GPGSV,1,1,04,06,75,031,35,12,46,312,30,17,36,081,32,46,45,185,29*70
$GLGSV,1,1,02,86,,,14,,,,31*6E
$GNGLL,,,,,150219.40,V,N*5E
$GNRMC,150219.60,V,,,,,,,281015,,,N*64
$GNVTG,,,,,,,,,N*2E
$GNGGA,150219.60,,,,,0,00,99.99,,,,,,*70
$GNGSA,A,1,,,,,,,,,,,,,99.99,99.99,99.99*2E
$GNGSA,A,1,,,,,,,,,,,,,99.99,99.99,99.99*2E
$GPGSV,1,1,04,06,75,031,35,12,46,312,30,17,36,081,32,46,45,185,29*70
$GLGSV,1,1,02,86,,,13,,,,31*69
$GNGLL,,,,,150219.60,V,N*5C
$GNRMC,150219.80,V,,,,,,,281015,,,N*6A
$GNVTG,,,,,,,,,N*2E
$GNGGA,150219.80,,,,,0,00,99.99,,,,,,*7E
$GNGSA,A,1,,,,,,,,,,,,,99.99,99.99,99.99*2E
$GNGSA,A,1,,,,,,,,,,,,,99.99,99.99,99.99*2E
$GPGSV,1,1,04,06,75,031,35,12,46,312,30,17,36,081,32,46,45,185,29*70
$GLGSV,1,1,02,86,,,12,,,,31*68
$GNGLL,,,,,150219.80,V,N*52
$GNRMC,150220.00,V,,,,,,,281015,,,N*68
$GNVTG,,,,,,,,,N*2E
$GNGGA,150220.00,,,,,0,00,99.99,,,,,,*7C
$GNGSA,A,1,,,,,,,,,,,,,99.99,99.99,99.99*2E
$GNGSA,A,1,,,,,,,,,,,,,99.99,99.99,99.99*2E
$GPGSV,1,1,04,06,75,031,35,12,46,312,29,17,36,081,31,46,45,185,29*7B
$GLGSV,1,1,02,86,,,11,,,,31*6B
$GNGLL,,,,,150220.00,V,N*50
$GNRMC,150220.20,V,,,,,,,281015,,,N*6A
$GNVTG,,,,,,,,,N*2E
$GNGGA,150220.20,,,,,0,00,99.99,,,,,,*7E
$GNGSA,A,1,,,,,,,,,,,,,99.99,99.99,99.99*2E
$GNGSA,A,1,,,,,,,,,,,,,99.99,99.99,99.99*2E
$GPGSV,1,1,04,06,75,031,35,12,46,312,29,17,36,081,31,46,45,185,29*7B
$GLGSV,1,1,02,86,,,11,,,,31*6B
$GNGLL,,,,,150220.20,V,N*52
$GNRMC,150220.40,V,,,,,,,281015,,,N*6C
$GNVTG,,,,,,,,,N*2E
$GNGGA,150220.40,,,,,0,00,99.99,,,,,,*78
$GNGSA,A,1,,,,,,,,,,,,,99.99,99.99,99.99*2E
$GNGSA,A,1,,,,,,,,,,,,,99.99,99.99,99.99*2E
$GPGSV,1,1,04,06,75,031,35,12,46,312,29,17,36,081,31,46,45,185,29*7B
$GLGSV,1,1,02,86,,,10,,,,31*6A
$GNGLL,,,,,150220.40,V,N*54
$GNRMC,150220.60,V,,,,,,,281015,,,N*6E
$GNVTG,,,,,,,,,N*2E
$GNGGA,150220.60,,,,,0,00,99.99,,,,,,*7A
$GNGSA,A,1,,,,,,,,,,,,,99.99,99.99,99.99*2E
$GNGSA,A,1,,,,,,,,,,,,,99.99,99.99,99.99*2E
$GPGSV,1,1,04,06,75,031,31,12,46,312,21,17,36,081,30,46,45,185,29*76
$GLGSV,1,1,02,86,,,13,,,,31*69
$GNGLL,,,,,150220.60,V,N*56
$GNRMC,150220.80,V,,,,,,,281015,,,N*60
$GNVTG,,,,,,,,,N*2E
$GNGGA,150220.80,,,,,0,00,99.99,,,,,,*74
$GNGSA,A,1,,,,,,,,,,,,,99.99,99.99,99.99*2E
$GNGSA,A,1,,,,,,,,,,,,,99.99,99.99,99.99*2E
$GPGSV,1,1,04,06,75,031,31,12,46,312,21,17,36,081,30,46,45,185,29*76
$GLGSV,1,1,02,86,,,28,,,,31*61
$GNGLL,,,,,150220.80,V,N*58
$GNRMC,150221.00,V,,,,,,,281015,,,N*69
$GNVTG,,,,,,,,,N*2E
$GNGGA,150221.00,,,,,0,00,99.99,,,,,,*7D
$GNGSA,A,1,,,,,,,,,,,,,99.99,99.99,99.99*2E
$GNGSA,A,1,,,,,,,,,,,,,99.99,99.99,99.99*2E
$GPGSV,1,1,04,06,75,031,30,12,46,312,21,17,36,081,30,46,45,185,29*77
